FIPS,State,Area_Name,Latitude,Longitude,DensityPerSquaremileOfLandarea-Population,Median_Household_Income_2018,Percent_of_adults_with_a_high_school_diploma_only_2014-18,CommunityID
01001,AL,Autauga County,32.536382,-86.64449,91.8,59338,32.6,6
01003,AL,Baldwin County,30.659218,-87.746067,114.6,57588,27.6,5
01005,AL,Barbour County,31.87067,-85.405456,31,34382,35.7,3
01007,AL,Bibb County,33.015893,-87.127148,36.8,46064,47.3,6
01009,AL,Blount County,33.977448,-86.567246,88.9,50412,34,6
01011,AL,Bullock County,32.101759,-85.717261,17.5,29267,39.7,7
01013,AL,Butler County,31.751667,-86.681969,27,37365,43.9,3
01015,AL,Calhoun County,33.771706,-85.822513,195.7,45400,32.4,6
01017,AL,Chambers County,32.917943,-85.391812,57.4,39917,38.4,3
01019,AL,Cherokee County,34.069515,-85.654242,46.9,42132,38.3,3
01021,AL,Chilton County,32.85406,-86.726628,63,47547,44.1,5
01023,AL,Choctaw County,31.991008,-88.248887,15.2,39907,38.2,3
01025,AL,Clarke County,31.685521,-87.818624,20.9,40741,43.7,7
01027,AL,Clay County,33.267809,-85.862051,23.1,39201,36.3,7
01029,AL,Cleburne County,33.671981,-85.516109,26.7,46495,39.6,7
01031,AL,Coffee County,31.402183,-85.989201,73.6,55122,27.9,5
01033,AL,Colbert County,34.703112,-87.801457,91.8,49055,36,5
01035,AL,Conecuh County,31.428293,-86.992029,15.6,32613,48.8,5
01037,AL,Coosa County,32.931445,-86.243482,17.7,42423,38.6,7
01039,AL,Covington County,31.243987,-86.448721,36.6,40203,35.4,3
01041,AL,Crenshaw County,31.732826,-86.319222,22.8,39057,38.8,7
01043,AL,Cullman County,34.131923,-86.869267,109.4,45796,35.6,3
01045,AL,Dale County,31.430654,-85.609476,89.6,45309,32.7,3
01047,AL,Dallas County,32.33354,-87.114356,44.8,34035,35.2,3
01049,AL,DeKalb County,34.460929,-85.803992,91.5,39491,33.3,3
01051,AL,Elmore County,32.597229,-86.142739,128.2,60367,32.8,5
01053,AL,Escambia County,31.121748,-87.168429,40.5,38418,44.5,5
01055,AL,Etowah County,34.047638,-86.03442,195.2,44903,32.9,5
01057,AL,Fayette County,33.732249,-87.752049,27.5,39254,41.5,7
01059,AL,Franklin County,34.441988,-87.842815,50,39388,36.8,7
01061,AL,Geneva County,31.090866,-85.824346,46.6,37823,37.2,6
01063,AL,Greene County,32.844497,-87.964201,14,28524,36.8,3
01065,AL,Hale County,32.752796,-87.623061,24.5,34724,42.6,3
01067,AL,Henry County,31.516978,-85.239971,30.8,46027,33.5,5
01069,AL,Houston County,31.158193,-85.296398,175.1,47993,31.6,5
01071,AL,Jackson County,34.763522,-85.9774,49.4,41929,40.8,5
01073,AL,Jefferson County,33.553444,-86.896536,592.5,55013,26.8,3
01075,AL,Lamar County,33.787085,-88.087431,24.1,40936,39.9,7
01077,AL,Lauderdale County,34.904122,-87.650997,138.8,48707,36,5
01079,AL,Lawrence County,34.529776,-87.321865,49.7,43909,41.5,6
01081,AL,Lee County,32.604064,-85.353048,230.8,48937,24.1,5
01083,AL,Limestone County,34.810239,-86.9814,147.8,64863,30.3,5
01085,AL,Lowndes County,32.147888,-86.650586,15.8,33973,38.6,3
01087,AL,Macon County,32.387027,-85.692887,35.2,32495,30.1,3
01089,AL,Madison County,34.764238,-86.55108,417.7,63755,20.8,3
01091,AL,Marengo County,32.247591,-87.791091,21.5,37733,39.8,3
01093,AL,Marion County,34.138219,-87.881551,41.5,37887,34.8,3
01095,AL,Marshall County,34.309564,-86.321668,164.4,46233,31.1,5
01097,AL,Mobile County,30.684573,-88.196568,335.9,43598,33.5,6
01099,AL,Monroe County,31.580332,-87.383266,22.5,39556,46.1,6
01101,AL,Montgomery County,32.203651,-86.203831,292.5,49640,25.5,5
01103,AL,Morgan County,34.454484,-86.846402,206.3,52797,29.6,3
01105,AL,Perry County,32.639005,-87.293827,14.7,26814,39.4,2
01107,AL,Pickens County,33.296809,-88.096878,22.4,37586,36.7,3
01109,AL,Pike County,31.798726,-85.941997,48.9,37259,33.3,6
01111,AL,Randolph County,33.296475,-85.464068,39.5,40546,36.3,2
01113,AL,Russell County,32.289811,-85.18698,82.6,39104,32.3,5
01115,AL,St. Clair County,33.712963,-86.315663,132.3,57284,36,3
01117,AL,Shelby County,33.262937,-86.678104,248.5,75663,20.3,3
01119,AL,Sumter County,32.597481,-88.200057,15.2,27859,37.8,5
01121,AL,Talladega County,33.369277,-86.175805,111.7,41630,34.9,7
01123,AL,Tallapoosa County,32.863369,-85.799553,58.1,42205,32.9,6
01125,AL,Tuscaloosa County,33.290202,-87.52286,147.3,52557,29.9,3
01127,AL,Walker County,33.791571,-87.301092,84.7,45434,37.1,3
01129,AL,Washington County,31.406974,-88.202078,16.3,44424,43.2,7
01131,AL,Wilcox County,31.99033,-87.302205,13.1,25385,40.3,7
01133,AL,Winston County,34.155888,-87.364147,39.9,41156,37.4,3
02013,AK,Aleutians East Borough,55.243722,-161.950749,0.4,70081,40.2,4
02016,AK,Aleutians West Census Area,51.959447,178.338813,1.3,82633,40.5,1
02020,AK,Anchorage Municipality,61.177549,-149.274354,171.2,82113,23.8,6
02050,AK,Bethel Census Area,60.928916,-160.15335,0.4,44304,45.2,2
02060,AK,Bristol Bay Borough,58.731373,-156.986612,2,77257,34.9,2
02068,AK,Denali Borough,63.682732,-150.026719,0.1,75477,26.1,4
02070,AK,Dillingham Census Area,59.824816,-158.602233,0.3,54524,39.2,7
02090,AK,Fairbanks North Star Borough,64.690832,-146.599867,13.3,74268,22.3,2
02100,AK,Haines Borough,59.099905,-135.578102,1.1,58943,30,4
02105,AK,Hoonah-Angoon Census Area,58.076434,-135.1851,0.3,51188,35.6,4
02110,AK,Juneau City and Borough,58.3727,-134.178781,11.6,79173,20.4,7
02122,AK,Kenai Peninsula Borough,60.366373,-152.321973,3.4,65439,32.2,5
02130,AK,Ketchikan Gateway Borough,55.449938,-131.106685,2.8,68309,29.9,4
02150,AK,Kodiak Island Borough,57.553611,-153.630911,2.1,74109,31.3,7
02164,AK,Lake and Peninsula Borough,58.205065,-156.705188,0.1,49403,41.9,4
02170,AK,Matanuska-Susitna Borough,62.182174,-149.407974,3.6,74649,32.2,7
02180,AK,Nome Census Area,64.783686,-164.188912,0.4,55318,42.9,1
02185,AK,North Slope Borough,69.449343,-153.47283,0.1,89276,43,7
02188,AK,Northwest Arctic Borough,67.005066,-160.021086,0.2,59337,47.3,7
02195,AK,Petersburg Borough,56.639612,-133.527996,1.2,66075,31.9,1
02198,AK,Prince of Wales-Hyder Census Area,55.415683,-132.875734,1.4,49356,37.3,4
02220,AK,Sitka City and Borough,57.142509,-135.332624,3.1,71825,28.3,7
02230,AK,Skagway Municipality,59.575097,-135.335418,2.1,74635,23.4,4
02240,AK,Southeast Fairbanks Census Area,63.864997,-143.218628,0.3,63527,32.6,2
02261,AK,Valdez-Cordova Census Area,61.34984,-145.023141,0.3,68528,32.7,7
02275,AK,Wrangell City and Borough,56.279121,-132.040326,0.9,57832,37.6,4
02282,AK,Yakutat City and Borough,59.999083,-140.239593,0.1,59523,38.4,4
02290,AK,Yukon-Koyukuk Census Area,65.376131,-151.576855,0,38912,40.3,7
04001,AZ,Apache County,35.385845,-109.493747,6.4,33652,33.1,3
04003,AZ,Cochise County,31.881793,-109.75412,21.3,49164,23.5,3
04005,AZ,Coconino County,35.829692,-111.773728,7.2,60187,21.4,2
04007,AZ,Gila County,33.789618,-110.81187,11.3,43585,28.6,4
04009,AZ,Graham County,32.931828,-109.87831,8.1,50157,29.9,3
04011,AZ,Greenlee County,33.238872,-109.242323,4.6,65818,36.2,1
04012,AZ,La Paz County,33.727625,-114.038793,4.6,37350,33,2
04013,AZ,Maricopa County,33.346541,-112.495534,414.9,65234,22.6,2
04015,AZ,Mohave County,35.717705,-113.749689,15,45129,34.8,2
04017,AZ,Navajo County,35.390934,-110.320908,10.8,40650,30.1,2
04019,AZ,Pima County,32.128237,-111.783018,106.7,53395,22.5,3
04021,AZ,Pinal County,32.91891,-111.367257,70,58848,29.7,2
04023,AZ,Santa Cruz County,31.525904,-110.84519,38.3,40545,27.2,2
04025,AZ,Yavapai County,34.630044,-112.573745,26,48758,25.7,3
04027,AZ,Yuma County,32.773942,-113.910905,35.5,44116,25.9,2
05001,AR,Arkansas County,34.289574,-91.376547,19.2,43887,38.3,5
05003,AR,Ashley County,33.190835,-91.772267,23.6,41127,39.9,7
05005,AR,Baxter County,36.28071,-92.330438,74.9,39686,35,6
05007,AR,Benton County,36.337825,-94.256187,261.2,68978,29.1,2
05009,AR,Boone County,36.304308,-93.079204,62.5,44482,33.8,6
05011,AR,Bradley County,33.463819,-92.168164,17.7,37729,41.6,7
05013,AR,Calhoun County,33.56046,-92.513879,8.5,44969,43.6,7
05015,AR,Carroll County,36.337774,-93.541663,43.6,45023,34.6,4
05017,AR,Chicot County,33.267139,-91.297158,18.3,31787,39.2,7
05019,AR,Clark County,34.053312,-93.176205,26.6,45408,30.5,3
05021,AR,Clay County,36.367302,-90.418704,25.2,37687,41.2,6
05023,AR,Cleburne County,35.566288,-92.059974,46.9,44902,40.7,3
05025,AR,Cleveland County,33.893201,-92.188714,14.5,47600,47.2,7
05027,AR,Columbia County,33.21507,-93.226901,32.1,40909,39.9,3
05029,AR,Conway County,35.265702,-92.689248,38.5,44565,43.4,3
05031,AR,Craighead County,35.828268,-90.630411,136.4,45615,34.1,7
05033,AR,Crawford County,35.583041,-94.236224,104.4,47363,37.4,5
05035,AR,Crittenden County,35.211878,-90.315331,83.5,42606,35,6
05037,AR,Cross County,35.291259,-90.773894,29,41214,41.5,7
05039,AR,Dallas County,33.967823,-92.653999,12.2,37259,43.4,7
05041,AR,Desha County,33.828748,-91.244427,16.9,36132,44,6
05043,AR,Drew County,33.587242,-91.722778,22.3,42494,35.4,7
05045,AR,Faulkner County,35.146356,-92.324654,174.8,53882,30.5,3
05047,AR,Franklin County,35.508573,-93.887672,29.8,43696,40.1,7
05049,AR,Fulton County,36.383443,-91.819239,19.8,35630,37.2,7
05051,AR,Garland County,34.578861,-93.146915,141.7,43610,31.5,7
05053,AR,Grant County,34.288063,-92.423984,28.3,52050,44.2,5
05055,AR,Greene County,36.119922,-90.565241,72.9,46512,44.2,7
05057,AR,Hempstead County,33.728611,-93.665809,31.1,38682,36.9,6
05059,AR,Hot Spring County,34.315177,-92.944147,53.5,47205,39.6,2
05061,AR,Howard County,34.083179,-93.990988,23.4,40199,37.3,5
05063,AR,Independence County,35.737499,-91.559942,48,45596,35.8,7
05065,AR,Izard County,36.094879,-91.913625,23.6,37828,37.8,7
05067,AR,Jackson County,35.596605,-91.223178,28.4,36573,41.1,7
05069,AR,Jefferson County,34.277696,-91.930701,88.9,38596,38.5,6
05071,AR,Johnson County,35.573359,-93.466322,38.7,39381,41.2,2
05073,AR,Lafayette County,33.24066,-93.611643,14.5,35527,41.3,7
05075,AR,Lawrence County,36.041098,-91.101153,29.6,40308,40.4,7
05077,AR,Lee County,34.77975,-90.779288,17.3,28080,40.8,2
05079,AR,Lincoln County,33.957665,-91.727624,25.2,44951,50.3,7
05081,AR,Little River County,33.699497,-94.229774,24.7,43559,42.7,7
05083,AR,Logan County,35.21855,-93.720563,31.6,41471,45,7
05085,AR,Lonoke County,34.755114,-91.894132,88.7,56651,35.1,7
05087,AR,Madison County,36.012545,-93.724053,18.8,42674,45.6,2
05089,AR,Marion County,36.266656,-92.678588,27.9,36581,36.8,7
05091,AR,Miller County,33.305505,-93.901509,69.5,42162,35.9,2
05093,AR,Mississippi County,35.766943,-90.052209,51.6,36718,38.6,6
05095,AR,Monroe County,34.679513,-91.203314,13.4,32922,43,7
05097,AR,Montgomery County,34.545652,-93.664147,12.2,38318,36.5,7
05099,AR,Nevada County,33.666699,-93.305072,14.6,37626,43.8,6
05101,AR,Newton County,35.910063,-93.215084,10.1,36078,40.8,7
05103,AR,Ouachita County,33.591158,-92.878418,35.6,37624,41.6,7
05105,AR,Perry County,34.946363,-92.926877,18.9,45342,40.7,7
05107,AR,Phillips County,34.425842,-90.848386,31.3,29945,30.1,7
05109,AR,Pike County,34.158191,-93.658659,18.8,41534,38.9,7
05111,AR,Poinsett County,35.568981,-90.680595,32.4,37370,44.3,7
05113,AR,Polk County,34.490915,-94.230884,24.1,39048,37.4,6
05115,AR,Pope County,35.455297,-93.031535,76,45788,35.5,3
05117,AR,Prairie County,34.828225,-91.5572,13.4,43245,40,7
05119,AR,Pulaski County,34.773988,-92.316515,503.8,49957,26.2,5
05121,AR,Randolph County,36.341299,-91.028441,27.6,37799,35.6,7
05123,AR,St. Francis County,35.014438,-90.742199,44.5,33257,38.8,7
05125,AR,Saline County,34.648525,-92.674463,148,63677,31.5,6
05127,AR,Scott County,34.858869,-94.063641,12.6,35826,43,7
05129,AR,Searcy County,35.90966,-92.699351,12.3,31659,45.1,6
05131,AR,Sebastian County,35.196981,-94.274989,236.4,46843,32,5
05133,AR,Sevier County,33.994608,-94.24329,30.2,44100,36.1,3
05135,AR,Sharp County,36.173399,-91.471069,28.6,36032,42,5
05137,AR,Stone County,35.856989,-92.140494,20.4,34009,36.3,7
05139,AR,Union County,33.168219,-92.598145,40.1,45335,35.2,7
05141,AR,Van Buren County,35.582959,-92.515977,24.4,40486,43.9,2
05143,AR,Washington County,35.971209,-94.218417,215.6,50893,26.3,2
05145,AR,White County,35.254722,-91.753158,74.5,44811,38.4,6
05147,AR,Woodruff County,35.189071,-91.244418,12.4,34306,42.5,2
05149,AR,Yell County,34.997713,-93.408303,23.9,41729,40.9,2
06001,CA,Alameda County,37.648081,-121.913304,2043.6,101744,17.6,6
06003,CA,Alpine County,38.61761,-119.798999,1.6,55384,28.7,4
06005,CA,Amador County,38.44355,-120.653856,64.1,58515,28.7,7
06007,CA,Butte County,39.665959,-121.601919,134.4,50945,22.7,7
06009,CA,Calaveras County,38.187844,-120.555115,44.7,62984,27.6,6
06011,CA,Colusa County,39.177739,-122.237563,18.6,57249,23.7,3
06013,CA,Contra Costa County,37.919479,-121.951543,1465.2,101463,17.6,6
06015,CA,Del Norte County,41.749903,-123.980998,28.4,48518,31.5,7
06017,CA,El Dorado County,38.785532,-120.534398,106,81869,21.2,5
06019,CA,Fresno County,36.761006,-119.655019,156.2,52318,22.9,3
06021,CA,Glenn County,39.602546,-122.4017,21.4,47365,28.2,6
06023,CA,Humboldt County,40.706673,-123.925818,37.7,49471,23.5,6
06025,CA,Imperial County,33.040816,-115.355395,41.8,46633,24.5,2
06027,CA,Inyo County,36.561977,-117.403927,1.8,53793,29.3,7
06029,CA,Kern County,35.346629,-118.729506,103.3,51586,27.7,7
06031,CA,Kings County,36.072478,-119.81553,110.1,58255,25.5,7
06033,CA,Lake County,39.094802,-122.746757,51.5,45086,30.1,7
06035,CA,Lassen County,40.721089,-120.629931,7.7,57705,33.2,6
06037,CA,Los Angeles County,34.196398,-118.261862,2419.6,67986,20.7,3
06039,CA,Madera County,37.210039,-119.749852,70.6,53632,25,3
06041,CA,Marin County,38.051817,-122.745974,485.1,122933,10.9,3
06043,CA,Mariposa County,37.570034,-119.91286,12.6,51402,26.5,5
06045,CA,Mendocino County,39.432388,-123.442881,25.1,51386,25.8,7
06047,CA,Merced County,37.194806,-120.722802,132.2,56169,25.8,7
06049,CA,Modoc County,41.592919,-120.71837,2.5,45227,32.3,7
06051,CA,Mono County,37.915836,-118.875167,4.7,66499,22.8,7
06053,CA,Monterey County,36.240107,-121.315573,126.5,69665,20.4,3
06055,CA,Napa County,38.507351,-122.325995,182.4,85624,18,5
06057,CA,Nevada County,39.295191,-120.773446,103.1,66681,18.4,5
06059,CA,Orange County,33.675687,-117.777207,3807.7,89373,17.1,3
06061,CA,Placer County,39.062032,-120.722718,247.6,89175,18.2,6
06063,CA,Plumas County,39.99517,-120.829516,7.8,55079,25.2,7
06065,CA,Riverside County,33.729828,-116.002239,303.8,66793,26.9,5
06067,CA,Sacramento County,38.450011,-121.340441,1470.8,69475,22.3,6
06069,CA,San Benito County,36.610702,-121.085296,39.8,80063,24.8,3
06071,CA,San Bernardino County,34.85722,-116.181197,101.5,63310,26.5,3
06073,CA,San Diego County,33.023604,-116.776117,735.8,78777,18.4,3
06075,CA,San Francisco County,37.727239,-123.032229,17179.2,110601,12.3,3
06077,CA,San Joaquin County,37.935034,-121.272237,492.6,63567,28.2,5
06079,CA,San Luis Obispo County,35.385227,-120.44754,81.7,70626,19.8,6
06081,CA,San Mateo County,37.414664,-122.371542,1602.2,122930,15,6
06083,CA,Santa Barbara County,34.537378,-120.038485,155,75646,17.9,3
06085,CA,Santa Clara County,37.220777,-121.690622,1381,125933,14.5,7
06087,CA,Santa Cruz County,37.012488,-122.007205,589.4,84213,15.8,3
06089,CA,Shasta County,40.760522,-122.04355,46.9,53908,24.8,6
06091,CA,Sierra County,39.576925,-120.521993,3.4,52308,26.6,7
06093,CA,Siskiyou County,41.587986,-122.533287,7.2,47560,25.5,6
06095,CA,Solano County,38.267226,-121.939594,503,82808,23.3,3
06097,CA,Sonoma County,38.532574,-122.945194,307.1,81002,18.8,7
06099,CA,Stanislaus County,37.562384,-121.002656,344.2,59616,28.6,3
06101,CA,Sutter County,39.035257,-121.702758,157.3,57879,23.9,5
06103,CA,Tehama County,40.126156,-122.232276,21.5,47572,30.7,7
06105,CA,Trinity County,40.647724,-123.114404,4.3,40680,33.4,4
06107,CA,Tulare County,36.230453,-118.780542,91.7,48763,26,6
06109,CA,Tuolumne County,38.021451,-119.964708,24.9,56500,28.4,3
06111,CA,Ventura County,34.358742,-119.133143,446.7,84170,18.9,3
06113,CA,Yolo County,38.679268,-121.903178,197.9,67804,18.5,5
06115,CA,Yuba County,39.270026,-121.34428,114.2,47504,23.1,7
08001,CO,Adams County,39.874325,-104.331872,378.2,70199,28.4,5
08003,CO,Alamosa County,37.568442,-105.788041,21.4,42897,27.3,6
08005,CO,Arapahoe County,39.644632,-104.331733,716.7,76665,20.7,3
08007,CO,Archuleta County,37.202395,-107.050863,8.9,53337,21.5,6
08009,CO,Baca County,37.303144,-102.535457,1.5,38294,27.3,7
08011,CO,Bent County,37.931891,-103.077584,4.3,37659,48.6,7
08013,CO,Boulder County,40.094826,-105.398382,405.6,83591,12.3,6
08014,CO,Broomfield County,39.953383,-105.052125,1691.9,96924,14.7,7
08015,CO,Chaffee County,38.738246,-106.316972,17.6,56168,26.7,3
08017,CO,Cheyenne County,38.835387,-102.604585,1,54504,36.4,7
08019,CO,Clear Creek County,39.689403,-105.670791,23,74019,20.9,7
08021,CO,Conejos County,37.213407,-106.176447,6.4,38777,32.4,1
08023,CO,Costilla County,37.277547,-105.42894,2.9,31557,23.8,7
08025,CO,Crowley County,38.321956,-103.787562,7.4,35880,41.7,4
08027,CO,Custer County,38.101994,-105.373515,5.8,55242,21,1
08029,CO,Delta County,38.861756,-107.864757,27.1,46786,38.2,7
08031,CO,Denver County,39.761849,-104.880625,3922.6,68069,17,3
08033,CO,Dolores County,37.747602,-108.530383,1.9,47482,38.3,4
08035,CO,Douglas County,39.326435,-104.926199,339.7,120670,12.2,3
08037,CO,Eagle County,39.630638,-106.692944,31,86896,15.7,3
08039,CO,Elbert County,39.310817,-104.117928,12.5,98247,24.6,7
08041,CO,El Paso County,38.827383,-104.527472,292.6,67923,20.2,5
08043,CO,Fremont County,38.455658,-105.421438,30.5,47885,39.8,7
08045,CO,Garfield County,39.599352,-107.90978,19.1,74421,28.5,2
08047,CO,Gilpin County,39.861082,-105.528947,36.3,72949,22,1
08049,CO,Grand County,40.123289,-106.095876,8,69214,26.5,5
08051,CO,Gunnison County,38.669679,-107.078108,4.7,61268,16,7
08053,CO,Hinsdale County,37.811625,-107.383405,0.8,62149,25.7,4
08055,CO,Huerfano County,37.687815,-104.959928,4.2,38242,28.7,7
08057,CO,Jackson County,40.663432,-106.329248,0.9,51457,29.6,2
08059,CO,Jefferson County,39.58646,-105.245601,699.5,85550,20.6,5
08061,CO,Kiowa County,38.388466,-102.75621,0.8,44704,38,4
08063,CO,Kit Carson County,39.30534,-102.603023,3.8,48342,37.7,7
08065,CO,Lake County,39.204316,-106.349696,19.4,51802,27.1,7
08067,CO,La Plata County,37.287367,-107.839718,30.3,66219,20.3,6
08069,CO,Larimer County,40.663091,-105.482131,115.4,71306,19.2,6
08071,CO,Las Animas County,37.318831,-104.04411,3.2,41485,28.8,7
08073,CO,Lincoln County,38.99374,-103.507555,2.1,46690,53.1,7
08075,CO,Logan County,40.728091,-103.090464,12.4,53168,32.7,7
08077,CO,Mesa County,39.019492,-108.461837,44.1,51132,27.3,7
08079,CO,Mineral County,37.651478,-106.9323,0.8,60210,19.3,1
08081,CO,Moffat County,40.573984,-108.204521,2.9,59500,40.4,7
08083,CO,Montezuma County,37.338025,-108.595786,12.6,50180,29.4,4
08085,CO,Montrose County,38.413427,-108.263042,18.4,52576,31.8,7
08087,CO,Morgan County,40.262354,-103.807092,22,55387,31.1,7
08089,CO,Otero County,37.88417,-103.72126,14.9,40064,29.2,7
08091,CO,Ouray County,38.1506,-107.767133,8.2,68900,18.2,7
08093,CO,Park County,39.118914,-105.717648,7.4,72121,29.9,1
08095,CO,Phillips County,40.594712,-102.345105,6.5,52367,27.6,4
08097,CO,Pitkin County,39.217533,-106.915943,17.7,89034,14.8,2
08099,CO,Prowers County,37.958181,-102.392161,7.7,42455,25.9,2
08101,CO,Pueblo County,38.170658,-104.489893,66.7,48308,28.7,7
08103,CO,Rio Blanco County,39.972606,-108.200685,2.1,63411,33.7,7
08105,CO,Rio Grande County,37.485763,-106.453214,13.1,44171,30.2,7
08107,CO,Routt County,40.48316,-106.985289,10,81033,19.7,7
08109,CO,Saguache County,38.033952,-106.246675,1.9,36869,29.8,1
08111,CO,San Juan County,37.781075,-107.670257,1.8,46878,26.7,4
08113,CO,San Miguel County,38.009374,-108.427326,5.7,69458,15.2,5
08115,CO,Sedgwick County,40.871568,-102.355358,4.3,40009,30,4
08117,CO,Summit County,39.621023,-106.137555,46,80078,19,3
08119,CO,Teller County,38.871994,-105.182552,41.9,64850,25.5,5
08121,CO,Washington County,39.965413,-103.209605,1.9,47869,32,7
08123,CO,Weld County,40.555794,-104.383649,63.4,75629,27.5,5
08125,CO,Yuma County,40.000631,-102.422649,4.2,53253,33.5,4
09001,CT,Fairfield County,41.228103,-73.366757,1467.2,91183,21.7,5
09003,CT,Hartford County,41.806053,-72.732916,1216.2,73037,26.9,3
09005,CT,Litchfield County,41.791897,-73.235428,206.3,76304,29.7,5
09007,CT,Middlesex County,41.434525,-72.524227,448.6,88709,26.1,3
09009,CT,New Haven County,41.349717,-72.900204,1426.7,67720,30.9,5
09011,CT,New London County,41.47863,-72.103452,412.2,67790,29.8,5
09013,CT,Tolland County,41.858076,-72.340977,372.2,89584,27.5,2
09015,CT,Windham County,41.824999,-71.990702,230.9,65182,33,6
10001,DE,Kent County,39.097088,-75.502982,276.9,54980,33.2,3
10003,DE,New Castle County,39.575915,-75.644132,1263.2,69562,30.6,3
10005,DE,Sussex County,38.677511,-75.335495,210.6,59821,32.8,3
11001,DC,District of Columbia,38.904149,-77.017094,9856.5,82533,17.2,5
12001,FL,Alachua County,29.67574,-82.357221,282.7,51026,21.7,3
12003,FL,Baker County,30.324442,-82.302284,46.3,52804,42.8,7
12005,FL,Bay County,30.237563,-85.631348,222.6,51777,31.4,5
12007,FL,Bradford County,29.946934,-82.166796,97,45075,39.7,7
12009,FL,Brevard County,28.298276,-80.700384,535,57612,28.6,3
12011,FL,Broward County,26.19352,-80.476658,1444.9,57200,27.4,3
12013,FL,Calhoun County,30.388801,-85.197916,25.8,38323,41.9,7
12015,FL,Charlotte County,26.868826,-81.940858,235.2,52724,33.8,5
12017,FL,Citrus County,28.843628,-82.524796,242.8,41556,38.3,6
12019,FL,Clay County,29.987116,-81.858147,315.8,62835,31.6,3
12021,FL,Collier County,26.118713,-81.400884,160.9,70649,25.4,3
12023,FL,Columbia County,30.221305,-82.623127,84.7,46195,36.1,7
12027,FL,DeSoto County,27.190581,-81.806253,54.7,37233,43.1,3
12029,FL,Dixie County,29.580899,-83.195666,23.3,37148,44.7,7
12031,FL,Duval County,30.335245,-81.648113,1133.9,55733,27.9,2
12033,FL,Escambia County,30.611664,-87.33904,453.4,50644,27.3,5
12035,FL,Flagler County,29.474894,-81.286362,197.1,58975,33.9,5
12037,FL,Franklin County,29.810176,-84.799174,21.6,40297,35.7,7
12039,FL,Gadsden County,30.57917,-84.612783,89.8,42259,36.6,7
12041,FL,Gilchrist County,29.723456,-82.795801,48.4,42186,42.2,6
12043,FL,Glades County,26.95481,-81.19082,16,38680,40.6,3
12045,FL,Gulf County,29.907257,-85.256537,28.1,45426,37.3,7
12047,FL,Hamilton County,30.491102,-82.951049,28.8,36299,44,3
12049,FL,Hardee County,27.492846,-81.82158,43.5,39169,47.9,5
12051,FL,Hendry County,26.53934,-81.151584,34,44391,34.8,5
12053,FL,Hernando County,28.567911,-82.464835,365.6,45884,36.4,3
12055,FL,Highlands County,27.342627,-81.340921,97.2,39994,38,5
12057,FL,Hillsborough County,27.90659,-82.349568,1204.9,58361,27.1,2
12059,FL,Holmes County,30.866222,-85.812959,41.6,38040,39,6
12061,FL,Indian River County,27.700638,-80.574803,274.5,58228,29.7,3
12063,FL,Jackson County,30.787812,-85.210374,54.2,39545,37.4,6
12065,FL,Jefferson County,30.424558,-83.890859,24.7,46332,33.3,7
12067,FL,Lafayette County,29.990066,-83.17851,16.3,42689,40.8,7
12069,FL,Lake County,28.764113,-81.712282,316.6,52447,32.9,3
12071,FL,Lee County,26.552134,-81.89225,788.7,56343,30.8,3
12073,FL,Leon County,30.45931,-84.2778,413.1,51046,19.1,5
12075,FL,Levy County,29.284409,-82.783483,36.5,39037,41.1,5
12077,FL,Liberty County,30.259849,-84.868581,10,40814,47.9,1
12079,FL,Madison County,30.447228,-83.470437,27.6,38249,38.1,3
12081,FL,Manatee County,27.481386,-82.365784,434.5,59587,30.4,2
12083,FL,Marion County,29.202805,-82.0431,209.1,44517,37.5,7
12085,FL,Martin County,27.079954,-80.398211,269.2,61592,25.2,2
12086,FL,Miami-Dade County,25.610494,-80.499045,1315.5,52043,27.7,3
12087,FL,Monroe County,25.601043,-81.206777,74.3,67094,27.3,3
12089,FL,Nassau County,30.605926,-81.764929,113,66898,32.7,3
12091,FL,Okaloosa County,30.665858,-86.594194,194.4,62779,24.7,6
12093,FL,Okeechobee County,27.385592,-80.887388,52,42258,38.4,5
12095,FL,Orange County,28.514435,-81.323295,1268.5,58037,24.5,3
12097,FL,Osceola County,28.059027,-81.139312,202.4,50473,31.9,3
12099,FL,Palm Beach County,26.645763,-80.448673,670.2,61735,24.5,3
12101,FL,Pasco County,28.302024,-82.455707,622.2,53788,33.1,2
12103,FL,Pinellas County,27.903122,-82.739518,3347.5,52226,28.3,2
12105,FL,Polk County,27.953115,-81.692783,334.9,51354,35.4,3
12107,FL,Putnam County,29.606006,-81.740894,102.2,39578,40.7,3
12109,FL,St. Johns County,29.890593,-81.383914,316.4,81925,21.4,3
12111,FL,St. Lucie County,27.380775,-80.443364,485.7,53377,33.7,3
12113,FL,Santa Rosa County,30.703633,-87.014255,149.6,69541,27.2,5
12115,FL,Sarasota County,27.184386,-82.365835,682.6,61652,29.1,3
12117,FL,Seminole County,28.690079,-81.13198,1367,67187,21.7,3
12119,FL,Sumter County,28.714294,-82.074715,170.8,55324,30.2,3
12121,FL,Suwannee County,30.189244,-82.992754,60.3,38525,39.3,7
12123,FL,Taylor County,30.016943,-83.616417,21.6,42307,43.3,7
12125,FL,Union County,30.05428,-82.366918,63.8,45906,37.9,7
12127,FL,Volusia County,29.057617,-81.161813,449.2,50285,32.2,3
12129,FL,Wakulla County,30.140378,-84.375136,50.8,58203,35.9,7
12131,FL,Walton County,30.631211,-86.176614,53,60973,27.6,3
12133,FL,Washington County,30.602217,-85.662797,42.7,39225,41.5,7
13001,GA,Appling County,31.739712,-82.290103,36,42781,38.3,6
13003,GA,Atkinson County,31.300562,-82.883614,24.7,36779,40.3,3
13005,GA,Bacon County,31.563327,-82.387859,42.9,38775,41.9,3
13007,GA,Baker County,31.319622,-84.454857,10.1,38288,38.9,7
13009,GA,Baldwin County,33.059532,-83.255362,177.3,42727,36.4,5
13011,GA,Banks County,34.351922,-83.498441,79.3,55384,40.6,7
13013,GA,Barrow County,33.992009,-83.712303,432.7,61413,34.4,6
13015,GA,Bartow County,34.240918,-84.838188,217.9,57409,33,5
13017,GA,Ben Hill County,31.740776,-83.14719,70.5,35020,44.2,7
13019,GA,Berrien County,31.274308,-83.231906,42.7,39412,42.3,3
13021,GA,Bibb County,32.808844,-83.694193,622.8,41390,31.6,3
13023,GA,Bleckley County,32.435403,-83.331717,60.5,46019,41.7,7
13025,GA,Brantley County,31.197334,-81.982978,41.6,41874,46.6,3
13027,GA,Brooks County,30.833696,-83.588971,32.9,36354,38.1,3
13029,GA,Bryan County,32.017969,-81.438543,69.3,79658,25.6,5
13031,GA,Bulloch County,32.393408,-81.74381,104.4,43766,27.3,5
13033,GA,Burke County,33.063737,-82.00389,28.2,42785,37.4,7
13035,GA,Butts County,33.290355,-83.958221,128.3,48831,44,3
13037,GA,Calhoun County,31.521279,-84.62629,23.9,33393,39.3,7
13039,GA,Camden County,30.916358,-81.636516,82.4,56555,31.5,5
13043,GA,Candler County,32.403986,-82.071446,45.3,35841,36.1,5
13045,GA,Carroll County,33.582237,-85.080527,221.5,52502,33.2,3
13047,GA,Catoosa County,34.899393,-85.137353,394.3,55807,32.4,7
13049,GA,Charlton County,30.779904,-82.139644,15.7,40499,39.1,5
13051,GA,Chatham County,31.974756,-81.091768,621.7,54165,24.3,5
13053,GA,Chattahoochee County,32.347445,-84.788021,45.3,46869,25.9,7
13055,GA,Chattooga County,34.474179,-85.345289,83,39513,38.7,7
13057,GA,Cherokee County,34.244317,-84.475057,508.3,82733,22.8,7
13059,GA,Clarke County,33.952234,-83.36713,979.1,42112,21.1,5
13061,GA,Clay County,31.619831,-84.992583,16.3,30239,42.3,5
13063,GA,Clayton County,33.552242,-84.412977,1832.5,46059,32.9,5
13065,GA,Clinch County,30.917653,-82.702614,8.5,37593,31.7,7
13067,GA,Cobb County,33.93994,-84.574166,2026.4,78603,18.7,5
13069,GA,Coffee County,31.549245,-82.844938,73.7,39480,38.6,2
13071,GA,Colquitt County,31.189758,-83.769741,83.6,38633,39.4,2
13073,GA,Columbia County,33.550556,-82.251342,427.6,82184,24.9,5
13075,GA,Cook County,31.152935,-83.429552,75.8,38827,34.4,3
13077,GA,Coweta County,33.352897,-84.762138,288.8,70974,28.6,5
13079,GA,Crawford County,32.709446,-83.979182,38.9,48004,39.4,7
13081,GA,Crisp County,31.914753,-83.753338,86,36096,39.1,5
13083,GA,Dade County,34.852424,-85.506201,95.6,48779,35.8,7
13085,GA,Dawson County,34.442842,-84.173284,105.9,68835,28.6,7
13087,GA,Decatur County,30.877961,-84.577744,46.6,38441,36.1,7
13089,GA,DeKalb County,33.770661,-84.226343,2585.7,63477,20.8,5
13091,GA,Dodge County,32.160656,-83.156818,44,35636,42.3,6
13093,GA,Dooly County,32.151995,-83.807167,38.1,37278,39.6,7
13095,GA,Dougherty County,31.535068,-84.214444,287.7,38806,29,3
13097,GA,Douglas County,33.699317,-84.765944,661.8,60512,30.7,5
13099,GA,Early County,31.324191,-84.906723,21.5,34984,36,3
13101,GA,Echols County,30.7085,-82.836132,9.7,38667,38.2,5
13103,GA,Effingham County,32.361711,-81.343337,109.4,65793,37.8,5
13105,GA,Elbert County,34.115017,-82.842057,57.4,39681,43.1,3
13107,GA,Emanuel County,32.5911,-82.299763,33.2,37574,42.9,5
13109,GA,Evans County,32.151902,-81.887618,60.2,37319,37.5,7
13111,GA,Fannin County,34.863837,-84.319287,61.2,43439,34.3,7
13113,GA,Fayette County,33.412717,-84.493941,548.3,95021,20.7,6
13115,GA,Floyd County,34.263677,-85.21373,188.9,44906,33.1,7
13117,GA,Forsyth County,34.225143,-84.127336,783.5,105921,16.6,6
13119,GA,Franklin County,34.375155,-83.227291,84.5,42904,40.1,5
13121,GA,Fulton County,33.790034,-84.468182,1748,70808,18.3,5
13123,GA,Gilmer County,34.690541,-84.453984,66.3,47757,36.4,7
13125,GA,Glascock County,33.227491,-82.606913,21.4,42820,42.1,2
13127,GA,Glynn County,31.212747,-81.496517,189.7,53906,27,3
13129,GA,Gordon County,34.509667,-84.873862,155.1,49101,35.2,7
13131,GA,Grady County,30.875863,-84.244772,55,41002,37.8,7
13133,GA,Greene County,33.576836,-83.167103,41.3,54016,33.6,7
13135,GA,Gwinnett County,33.959101,-84.022938,1871.2,72008,22.8,5
13137,GA,Habersham County,34.635108,-83.526406,155.5,51829,33.7,7
13139,GA,Hall County,34.317588,-83.818497,457.5,61631,27.5,5
13141,GA,Hancock County,33.26922,-83.000465,20,31716,42.9,7
13143,GA,Haralson County,33.795165,-85.220062,102,47662,36.6,5
13145,GA,Harris County,32.731549,-84.912432,69,74686,23.5,3
13147,GA,Hart County,34.348733,-82.96329,108.5,47171,36.7,6
13149,GA,Heard County,33.290968,-85.139594,40,46218,43.5,3
13151,GA,Henry County,33.452881,-84.15444,633,72970,31.1,5
13153,GA,Houston County,32.458381,-83.662856,372.5,60728,27.2,3
13155,GA,Irwin County,31.604306,-83.277037,26.9,38156,40.6,2
13157,GA,Jackson County,34.134157,-83.565133,178.1,68984,32.3,5
13159,GA,Jasper County,33.314905,-83.687892,37.8,51241,38.9,7
13161,GA,Jeff Davis County,31.811615,-82.636825,45.6,37211,40.4,7
13163,GA,Jefferson County,33.051874,-82.41905,32.2,38274,41.3,5
13165,GA,Jenkins County,32.794563,-81.971524,24,31419,40.5,5
13167,GA,Johnson County,32.689831,-82.661354,32.9,34849,44,3
13169,GA,Jones County,33.020226,-83.562339,72.8,55737,36.7,5
13171,GA,Lamar County,33.07446,-84.146721,99.8,48323,40.1,7
13173,GA,Lanier County,31.038197,-83.063164,54.4,41564,35.7,3
13175,GA,Laurens County,32.39322,-82.926317,60,42114,43.4,6
13177,GA,Lee County,31.818419,-84.146681,79.5,66090,30.8,5
13179,GA,Liberty County,31.807245,-81.457969,129.5,47685,32,5
13181,GA,Lincoln County,33.792151,-82.448299,38,46967,41.4,6
13183,GA,Long County,31.749563,-81.74287,36.1,46428,31.5,2
13185,GA,Lowndes County,30.83368,-83.268967,220.2,41820,30,2
13187,GA,Lumpkin County,34.568149,-83.998828,105.9,55583,29.2,7
13189,GA,McDuffie County,33.482464,-82.473188,85,42768,40.5,7
13191,GA,McIntosh County,31.482978,-81.370199,33.8,42513,38.1,6
13193,GA,Macon County,32.366216,-84.052162,36.8,32868,34.1,2
13195,GA,Madison County,34.128486,-83.203637,99.6,51338,38,5
13197,GA,Marion County,32.359538,-84.529561,23.9,39114,38.1,3
13199,GA,Meriwether County,33.03022,-84.663279,43.9,38886,38.9,5
13201,GA,Miller County,31.162908,-84.730386,21.7,42483,38.1,6
13205,GA,Mitchell County,31.22894,-84.192407,45.9,36788,38.2,3
13207,GA,Monroe County,33.017435,-83.922938,66.8,59362,33.9,3
13209,GA,Montgomery County,32.172108,-82.533349,38.1,41834,39,5
13211,GA,Morgan County,33.593732,-83.492324,51.4,57978,34.8,7
13213,GA,Murray County,34.797097,-84.73799,115,46810,37.8,5
13215,GA,Muscogee County,32.510197,-84.874946,877.5,46628,27.3,3
13217,GA,Newton County,33.544046,-83.855189,367.3,56598,33.6,5
13219,GA,Oconee County,33.834125,-83.437728,178,99497,19.6,3
13221,GA,Oglethorpe County,33.866806,-83.074081,33.9,51105,36.6,7
13223,GA,Paulding County,33.920903,-84.866979,455.8,73309,33.1,5
13225,GA,Peach County,32.571324,-83.831978,184.3,46525,29,7
13227,GA,Pickens County,34.456621,-84.490256,126.8,65062,29.1,7
13229,GA,Pierce County,31.353988,-82.210427,59.3,44389,44,3
13231,GA,Pike County,33.090769,-84.386627,82.7,66901,40.9,7
13233,GA,Polk County,33.995961,-85.186826,133.6,43679,39.6,6
13235,GA,Pulaski County,32.238794,-83.481855,48.2,40582,37.5,7
13237,GA,Putnam County,33.321061,-83.37179,61.6,51205,37.5,5
13239,GA,Quitman County,31.861487,-85.009317,16.6,33908,34.3,2
13241,GA,Rabun County,34.883026,-83.404735,44,44213,34,7
13243,GA,Randolph County,31.762651,-84.752311,18,28298,37.2,5
13245,GA,Richmond County,33.361487,-82.074998,618.4,40168,30.7,6
13247,GA,Rockdale County,33.652081,-84.02637,656.5,59673,31.5,5
13249,GA,Schley County,32.263441,-84.322724,30,45378,35.3,7
13251,GA,Screven County,32.744751,-81.617585,22.6,39048,42.7,7
13253,GA,Seminole County,30.933894,-84.867592,37.1,36869,39.6,7
13255,GA,Spalding County,33.262389,-84.286067,326.1,43510,39.4,3
13257,GA,Stephens County,34.552914,-83.290216,146.1,45850,36.7,7
13259,GA,Stewart County,32.073225,-84.834912,13.2,33053,42.2,2
13261,GA,Sumter County,32.042203,-84.204283,68,37562,33.2,3
13263,GA,Talbot County,32.704603,-84.530029,17.5,37265,44.3,3
13265,GA,Taliaferro County,33.559314,-82.875208,8.8,34090,47.8,7
13267,GA,Tattnall County,32.043768,-82.059208,53.2,41440,39.1,7
13269,GA,Taylor County,32.554667,-84.251426,23.6,36310,37.5,7
13271,GA,Telfair County,31.913639,-82.931062,37.7,34297,45.9,3
13273,GA,Terrell County,31.777191,-84.439446,27.8,35290,31.9,3
13275,GA,Thomas County,30.864616,-83.919783,82.1,41642,30.9,5
13277,GA,Tift County,31.457003,-83.525931,154.9,45680,34.5,3
13279,GA,Toombs County,32.126698,-82.332071,74.8,37148,38.5,7
13281,GA,Towns County,34.90265,-83.732158,62.9,45853,30.8,6
13283,GA,Treutlen County,32.409586,-82.570882,34.5,35069,38.9,6
13285,GA,Troup County,33.034482,-85.02836,161.9,45234,34.3,3
13287,GA,Turner County,31.718232,-83.628567,31.3,33261,40.4,6
13289,GA,Twiggs County,32.665847,-83.425879,25.2,42054,37.6,7
13291,GA,Union County,34.83377,-83.989573,66.3,45943,34.2,7
13293,GA,Upson County,32.881837,-84.292281,84,40965,35.9,7
13295,GA,Walker County,34.735827,-85.305385,154,43767,36.2,7
13297,GA,Walton County,33.782649,-83.734215,257.2,65416,37.8,7
13299,GA,Ware County,31.050881,-82.421507,40.7,38357,40.9,3
13301,GA,Warren County,33.419169,-82.688012,20.5,38352,42.4,7
13303,GA,Washington County,32.971848,-82.798112,31.2,39444,42.5,5
13305,GA,Wayne County,31.547845,-81.912376,46.9,44607,40.6,6
13307,GA,Webster County,32.046554,-84.553218,13.4,38187,44.8,2
13309,GA,Wheeler County,32.109276,-82.738701,25.1,32691,48.7,7
13311,GA,White County,34.643677,-83.743713,112.8,51579,31.6,7
13313,GA,Whitfield County,34.801726,-84.968541,353.2,47074,28.9,3
13315,GA,Wilcox County,31.962717,-83.438262,24.5,35961,48.4,7
13317,GA,Wilkes County,33.77904,-82.747922,22.6,39361,44.8,3
13319,GA,Wilkinson County,32.804321,-83.175587,21.4,41036,52.3,5
13321,GA,Worth County,31.551773,-83.84996,38,48708,41.8,3
15001,HI,Hawaii County,19.597764,-155.502443,45.9,56383,30.4,6
15003,HI,Honolulu County,21.461364,-158.201976,1586.7,83695,26.2,7
15005,HI,Kalawao County,21.218764,-156.97401,7.5,NA,27.5,4
15007,HI,Kauai County,22.012038,-159.705965,108.2,73981,30.1,3
15009,HI,Maui County,20.855931,-156.60155,133.3,78503,31.8,7
16001,ID,Ada County,43.447861,-116.244456,372.8,66827,23,3
16003,ID,Adams County,44.884583,-116.431873,2.9,45311,37.7,7
16005,ID,Bannock County,42.692939,-112.228986,74.5,51300,26.5,7
16007,ID,Bear Lake County,42.285833,-111.327445,6.1,53780,38.8,7
16009,ID,Benewah County,47.218451,-116.633541,12,48451,38.9,7
16011,ID,Bingham County,43.216357,-112.399206,21.8,50941,30,6
16013,ID,Blaine County,43.394482,-113.95529,8.1,76113,22.1,3
16015,ID,Boise County,43.987275,-115.715111,3.7,56837,27.4,7
16017,ID,Bonner County,48.312512,-116.59694,23.6,51373,30.5,5
16019,ID,Bonneville County,43.395171,-111.621878,55.9,60444,26.1,7
16021,ID,Boundary County,48.773065,-116.524619,8.6,47118,41.1,3
16023,ID,Butte County,43.6851,-113.177627,1.3,50050,36.9,7
16025,ID,Camas County,43.463396,-114.804427,1,53866,38,4
16027,ID,Canyon County,43.623051,-116.708527,321.6,53381,32,5
16029,ID,Caribou County,42.786273,-111.544172,3.9,61219,32.6,3
16031,ID,Cassia County,42.288635,-113.605498,8.9,51804,29.9,3
16033,ID,Clark County,44.286251,-112.36112,0.6,48471,23.6,7
16035,ID,Clearwater County,46.67257,-115.6535,3.6,46417,34.8,3
16037,ID,Custer County,44.273341,-114.252251,0.9,47682,29.8,7
16039,ID,Elmore County,43.394826,-115.470751,8.8,49344,28,3
16041,ID,Franklin County,42.173589,-111.822955,19.3,58170,36.3,3
16043,ID,Fremont County,44.218091,-111.484429,7.1,51155,32,7
16045,ID,Gem County,44.061473,-116.398784,29.8,49857,39.2,5
16047,ID,Gooding County,42.973185,-114.82142,21.2,51302,37.2,5
16049,ID,Idaho County,45.849237,-115.467376,1.9,40569,35.1,2
16051,ID,Jefferson County,43.796965,-112.318588,23.9,61927,27.7,7
16053,ID,Jerome County,42.691172,-114.263009,37.5,54020,32.7,5
16055,ID,Kootenai County,47.677113,-116.694918,111.3,56188,27.1,3
16057,ID,Latah County,46.81892,-116.730974,34.6,49538,19.9,6
16059,ID,Lemhi County,44.928789,-113.887841,1.7,44248,32,7
16061,ID,Lewis County,46.236328,-116.42376,8,44911,29.4,4
16063,ID,Lincoln County,42.986181,-114.153899,4.3,50464,34.6,4
16065,ID,Madison County,43.789709,-111.65655,80,41827,15.7,5
16067,ID,Minidoka County,42.856937,-113.64001,26.5,53447,29.6,2
16069,ID,Nez Perce County,46.333766,-116.760903,46.3,54476,32.9,7
16071,ID,Oneida County,42.18389,-112.520465,3.6,52602,37,3
16073,ID,Owyhee County,42.593063,-116.142655,1.5,48192,34.3,3
16075,ID,Payette County,44.00274,-116.748655,55.6,51835,33.7,5
16077,ID,Power County,42.694126,-112.844407,5.6,51921,33.9,7
16079,ID,Shoshone County,47.347694,-115.885092,4.9,36085,38.5,7
16081,ID,Teton County,43.760994,-111.211765,22.6,68749,16.2,6
16083,ID,Twin Falls County,42.352309,-114.665639,40.2,51594,27.9,5
16085,ID,Valley County,44.771532,-115.637875,2.7,60285,29.9,7
16087,ID,Washington County,44.448213,-116.79783,7,43402,36.5,5
17001,IL,Adams County,39.986053,-91.194961,78.5,55174,34.5,6
17003,IL,Alexander County,37.183683,-89.349506,35,35249,37.8,2
17005,IL,Bond County,38.885924,-89.436592,46.7,54800,36.8,5
17007,IL,Boone County,42.318983,-88.824295,193,74507,35.2,5
17009,IL,Brown County,39.962069,-90.75031,22.7,55327,36.8,7
17011,IL,Bureau County,41.401304,-89.528377,40.2,56099,38.4,7
17013,IL,Calhoun County,39.164262,-90.666295,20,56099,43.6,7
17015,IL,Carroll County,42.059084,-89.926485,34.6,51963,41.5,7
17017,IL,Cass County,39.969202,-90.245705,36.3,52486,43.2,7
17019,IL,Champaign County,40.13915,-88.197201,201.8,53251,21.7,5
17021,IL,Christian County,39.545524,-89.279593,49.1,52936,41.9,7
17023,IL,Clark County,39.332364,-87.791687,32.6,54092,38.8,3
17025,IL,Clay County,38.747312,-88.483789,29.5,45427,37.2,7
17027,IL,Clinton County,38.606423,-89.423136,79.7,66597,32.2,7
17029,IL,Coles County,39.51368,-88.220782,106,47291,30,7
17031,IL,Cook County,41.894294,-87.645455,5495.1,63347,23.3,6
17033,IL,Crawford County,39.00373,-87.757172,44.7,52313,29.9,2
17035,IL,Cumberland County,39.273121,-88.240619,31.9,60572,40.1,3
17037,IL,DeKalb County,41.894613,-88.768991,166.6,63274,25.5,5
17039,IL,De Witt County,40.181499,-88.901853,41.7,55300,36.9,2
17041,IL,Douglas County,39.766078,-88.222866,48,56976,32.7,7
17043,IL,DuPage County,41.852058,-88.086038,2799.8,93540,18.3,7
17045,IL,Edgar County,39.679037,-87.74711,29.8,51577,38.3,2
17047,IL,Edwards County,38.417095,-88.047941,30.2,51280,35.1,7
17049,IL,Effingham County,39.047694,-88.592786,71.5,60773,36.4,7
17051,IL,Fayette County,39.001125,-89.017923,30.9,47484,39.7,7
17053,IL,Ford County,40.594423,-88.224746,29,55357,36,6
17055,IL,Franklin County,37.991848,-88.926246,96.8,42071,32.7,7
17057,IL,Fulton County,40.465688,-90.206793,42.8,51258,34.6,7
17059,IL,Gallatin County,37.768677,-88.227964,17.3,43330,40.7,6
17061,IL,Greene County,39.355444,-90.387757,25.6,47314,44.4,7
17063,IL,Grundy County,41.29241,-88.401055,119.8,79348,33,7
17065,IL,Hamilton County,38.085226,-88.539005,19.5,53028,33.8,7
17067,IL,Hancock County,40.405792,-91.167988,24.1,53553,38.1,7
17069,IL,Hardin County,37.517852,-88.266148,24.3,41713,32.9,4
17071,IL,Henderson County,40.815141,-90.93848,19.3,53632,43.5,7
17073,IL,Henry County,41.350021,-90.130838,61.3,58042,33.8,7
17075,IL,Iroquois County,40.748867,-87.833601,26.6,55247,39.9,5
17077,IL,Jackson County,37.786096,-89.381212,103.1,41445,23.7,7
17079,IL,Jasper County,39.004874,-88.150763,19.6,54552,40.2,7
17081,IL,Jefferson County,38.30078,-88.92421,68,47425,30.6,7
17083,IL,Jersey County,39.080192,-90.361365,62.2,59117,37.5,7
17085,IL,Jo Daviess County,42.362391,-90.211471,37.7,56832,37.1,6
17087,IL,Johnson County,37.460815,-88.882962,36.6,53884,31.5,7
17089,IL,Kane County,41.939594,-88.42804,990.8,79834,22.5,7
17091,IL,Kankakee County,41.139494,-87.861125,167.7,53884,33.6,5
17093,IL,Kendall County,41.58814,-88.430626,358.2,93345,23.4,5
17095,IL,Knox County,40.930941,-90.213761,73.9,44553,36.2,6
17097,IL,Lake County,42.326444,-87.436118,1585.6,87336,21.1,6
17099,IL,LaSalle County,41.343341,-88.885931,100.4,54063,35.6,7
17101,IL,Lawrence County,38.718954,-87.730221,45.2,43767,37,6
17103,IL,Lee County,41.747442,-89.299351,49.7,54915,34.2,7
17105,IL,Livingston County,40.894376,-88.552852,37.3,59323,43.1,7
17107,IL,Logan County,40.12907,-89.365308,49,52959,35,7
17109,IL,McDonough County,40.455789,-90.677579,55.3,42887,30.6,7
17111,IL,McHenry County,42.324298,-88.452245,511.9,86268,26.2,5
17113,IL,McLean County,40.494559,-88.844539,143.3,67087,25.1,7
17115,IL,Macon County,39.860237,-88.961529,190.8,50684,34.4,7
17117,IL,Macoupin County,39.2659,-89.926344,55.4,53409,38.6,7
17119,IL,Madison County,38.827082,-89.900195,376.3,60121,30.7,7
17121,IL,Marion County,38.648396,-88.920221,68.9,46096,35.2,7
17123,IL,Marshall County,41.031119,-89.342371,32.7,57422,41.4,7
17125,IL,Mason County,40.236993,-89.913575,27.2,48764,44.2,7
17127,IL,Massac County,37.216119,-88.705658,65,43783,34.2,7
17129,IL,Menard County,40.022569,-89.794133,40.4,74872,36.7,5
17131,IL,Mercer County,41.204791,-90.741433,29.3,58384,39.3,2
17133,IL,Monroe County,38.277983,-90.179078,85.6,88481,29.2,6
17135,IL,Montgomery County,39.228092,-89.478007,42.8,53138,39.9,3
17137,IL,Morgan County,39.716806,-90.202277,62.5,48976,40.7,7
17139,IL,Moultrie County,39.636896,-88.625726,44.2,59901,33.2,7
17141,IL,Ogle County,42.041884,-89.320176,70.5,61794,33.6,5
17143,IL,Peoria County,40.785999,-89.767358,301.2,56478,27,7
17145,IL,Perry County,38.084385,-89.368487,50.6,49965,38.6,7
17147,IL,Piatt County,40.009056,-88.592328,38.1,67460,34.1,7
17149,IL,Pike County,39.625106,-90.889034,19.8,47815,41.2,7
17151,IL,Pope County,37.417169,-88.542374,12.1,43053,34.4,7
17153,IL,Pulaski County,37.215615,-89.127755,30.9,38400,34.2,2
17155,IL,Putnam County,41.19894,-89.298386,37.5,66319,38.5,7
17157,IL,Randolph County,38.056515,-89.82121,58.2,53607,39.3,6
17159,IL,Richland County,38.71155,-88.085698,45.1,48152,29.9,5
17161,IL,Rock Island County,41.468404,-90.572203,345,52642,29.9,5
17163,IL,St. Clair County,38.470198,-89.928546,410.6,58222,28.6,6
17165,IL,Saline County,37.751653,-88.545031,65.6,40761,28.5,7
17167,IL,Sangamon County,39.756378,-89.662311,227.4,62242,27.9,7
17169,IL,Schuyler County,40.156905,-90.613464,17.3,52018,37.8,7
17171,IL,Scott County,39.63698,-90.477759,21.3,55198,48.7,7
17173,IL,Shelby County,39.384926,-88.798862,29.5,56509,44.9,7
17175,IL,Stark County,41.096908,-89.797411,20.8,52651,39.7,1
17177,IL,Stephenson County,42.349726,-89.665994,84.5,47357,36,6
17179,IL,Tazewell County,40.508074,-89.51626,208.6,61508,31.9,7
17181,IL,Union County,37.475104,-89.252875,43.1,49716,33,7
17183,IL,Vermilion County,40.18674,-87.726772,90.9,44638,41.1,5
17185,IL,Wabash County,38.445821,-87.839167,53.5,53414,30.8,7
17187,IL,Warren County,40.850441,-90.620223,32.6,53532,32.8,5
17189,IL,Washington County,38.353141,-89.417187,26.2,66937,33.6,7
17191,IL,Wayne County,38.431948,-88.432129,23.5,50471,36.3,7
17193,IL,White County,38.087372,-88.178585,29.6,49507,38.4,7
17195,IL,Whiteside County,41.750571,-89.910957,85.5,57197,37.1,7
17197,IL,Will County,41.448474,-87.978456,809.6,86108,26.7,7
17199,IL,Williamson County,37.730353,-88.930018,157.9,46187,30.6,7
17201,IL,Winnebago County,42.337396,-89.161205,575.2,53795,32,5
17203,IL,Woodford County,40.789596,-89.210301,73.3,72247,32.1,7
18001,IN,Adams County,40.745733,-84.936131,101.4,56693,39.7,7
18003,IN,Allen County,41.091855,-85.07223,540.6,54473,28.7,6
18005,IN,Bartholomew County,39.205843,-85.897999,188.7,63067,32.6,7
18007,IN,Benton County,40.608253,-87.315479,21.8,51649,43.2,5
18009,IN,Blackford County,40.472672,-85.32373,77.3,45161,48.1,7
18011,IN,Boone County,40.050892,-86.469014,133.9,85876,21.3,3
18013,IN,Brown County,39.192585,-86.23941,48.9,60944,32.6,3
18015,IN,Carroll County,40.58498,-86.565141,54.1,57092,40.7,7
18017,IN,Cass County,40.753799,-86.355169,94.5,48598,38.3,7
18019,IN,Clark County,38.476217,-85.711122,295.6,56774,34.2,7
18021,IN,Clay County,39.393951,-87.115837,75.2,52699,44.4,7
18023,IN,Clinton County,40.305944,-86.477567,82,51730,44.1,7
18025,IN,Crawford County,38.289433,-86.440871,35.1,44152,46.2,2
18027,IN,Daviess County,38.696155,-87.076988,73.7,55434,33.8,7
18029,IN,Dearborn County,39.151491,-84.97346,164.1,66502,40.2,5
18031,IN,Decatur County,39.30598,-85.499831,69.1,57441,43.8,7
18033,IN,DeKalb County,41.401189,-85.000185,116.4,58987,41.8,6
18035,IN,Delaware County,40.227165,-85.398856,300.1,43096,34.6,7
18037,IN,Dubois County,38.373344,-86.873385,98,62126,39.2,6
18039,IN,Elkhart County,41.600693,-85.863986,426.5,59251,35.2,3
18041,IN,Fayette County,39.639655,-85.185032,112.9,47737,43,7
18043,IN,Floyd County,38.317937,-85.911474,504.1,64992,30,7
18045,IN,Fountain County,40.121282,-87.234806,43.6,53493,44.2,7
18047,IN,Franklin County,39.409762,-85.066964,60.1,62251,42.8,7
18049,IN,Fulton County,41.050384,-86.265006,56.6,52798,40.3,7
18051,IN,Gibson County,38.317413,-87.580566,68.7,56960,39.7,3
18053,IN,Grant County,40.515758,-85.654946,169.2,45138,40.6,3
18055,IN,Greene County,39.0486,-87.005245,61.1,46835,41.7,6
18057,IN,Hamilton County,40.04987,-86.020586,696.4,101740,15.3,6
18059,IN,Hancock County,39.822604,-85.772904,228.8,73831,32.8,7
18061,IN,Harrison County,38.18644,-86.103681,81.2,60379,40.1,7
18063,IN,Hendricks County,39.768749,-86.510287,357.4,80834,27.2,7
18065,IN,Henry County,39.929576,-85.397338,126.2,50183,43.9,4
18067,IN,Howard County,40.483537,-86.114118,282.4,55365,36.5,7
18069,IN,Huntington County,40.826394,-85.478598,97,53809,42,2
18071,IN,Jackson County,38.911957,-86.042516,83.2,55518,43.5,7
18073,IN,Jasper County,41.017688,-87.118814,59.8,66720,42.3,7
18075,IN,Jay County,40.434972,-85.00338,55.4,48392,47.2,7
18077,IN,Jefferson County,38.783604,-85.44009,89.9,51031,42.3,5
18079,IN,Jennings County,38.996234,-85.628111,75.7,51560,45.9,7
18081,IN,Johnson County,39.495986,-86.0946,435.8,69880,31,5
18083,IN,Knox County,38.688663,-87.420182,74.5,48606,35.8,7
18085,IN,Kosciusko County,41.244293,-85.861575,145.6,57367,35.2,5
18087,IN,LaGrange County,41.642468,-85.426302,97.8,67498,32.4,4
18089,IN,Lake County,41.472239,-87.374337,994.1,55280,35,5
18091,IN,LaPorte County,41.549011,-86.744729,186.3,52095,39.3,6
18093,IN,Lawrence County,38.839815,-86.48782,102.7,53187,43.4,7
18095,IN,Madison County,40.166203,-85.722454,291.3,49522,39,7
18097,IN,Marion County,39.782976,-86.135794,2279.6,48409,28,7
18099,IN,Marshall County,41.325003,-86.269036,106.1,55766,39,3
18101,IN,Martin County,38.705322,-86.801847,30.8,55444,43.2,6
18103,IN,Miami County,40.772881,-86.044259,98.7,47624,42.5,6
18105,IN,Monroe County,39.160751,-86.523325,349.7,48883,21.9,5
18107,IN,Montgomery County,40.040296,-86.892715,75.6,53700,41.3,7
18109,IN,Morgan County,39.482646,-86.447457,170.5,66151,40,7
18111,IN,Newton County,40.962399,-87.402172,35.5,53060,44.2,7
18113,IN,Noble County,41.400794,-85.41785,115.7,61341,40.7,5
18115,IN,Ohio County,38.940527,-84.964299,71.1,58022,45.6,6
18117,IN,Orange County,38.547381,-86.489257,49.8,44968,45.1,7
18119,IN,Owen County,39.317339,-86.838845,56,49731,42.6,7
18121,IN,Parke County,39.77425,-87.19695,39,49639,43.4,3
18123,IN,Perry County,38.081436,-86.62654,50.7,52332,47,3
18125,IN,Pike County,38.397898,-87.232532,38.4,54265,42.6,7
18127,IN,Porter County,41.509922,-87.071308,393,69298,34.5,5
18129,IN,Posey County,38.027614,-87.868653,63.3,68162,38.4,4
18131,IN,Pulaski County,41.045272,-86.692538,30.9,49730,47,7
18133,IN,Putnam County,39.665545,-86.853325,79,54718,43.8,7
18135,IN,Randolph County,40.164414,-85.005004,57.9,46441,42.5,7
18137,IN,Ripley County,39.10023,-85.260541,64.6,57436,43.5,6
18139,IN,Rush County,39.622312,-85.466527,42.6,53271,46,5
18141,IN,St. Joseph County,41.617699,-86.288159,583,54674,30.7,6
18143,IN,Scott County,38.679431,-85.751898,127,44913,44.2,7
18145,IN,Shelby County,39.524135,-85.792174,108.1,57193,42.7,6
18147,IN,Spencer County,38.009789,-87.010645,52.8,56862,44.9,5
18149,IN,Starke County,41.28322,-86.64757,75.6,49972,42.1,5
18151,IN,Steuben County,41.643437,-85.002467,110.7,58295,38.3,6
18153,IN,Sullivan County,39.089225,-87.415843,48,47554,44.7,7
18155,IN,Switzerland County,38.825846,-85.029679,48.1,47713,48.6,6
18157,IN,Tippecanoe County,40.38926,-86.893943,345.7,52269,25,6
18159,IN,Tipton County,40.310229,-86.056207,61.2,60896,41.1,7
18161,IN,Union County,39.623111,-84.925152,46.6,50300,48,7
18163,IN,Vanderburgh County,38.02007,-87.586166,769.7,50500,32.5,5
18165,IN,Vermillion County,39.854045,-87.462071,63.1,49287,44.2,7
18167,IN,Vigo County,39.429143,-87.390375,267.4,48335,32.2,7
18169,IN,Wabash County,40.843717,-85.795175,79.7,51487,42.5,6
18171,IN,Warren County,40.352658,-87.375847,23.3,60596,43.2,7
18173,IN,Warrick County,38.097764,-87.272023,155.1,75534,31.4,6
18175,IN,Washington County,38.600613,-86.104751,55,44534,43.6,7
18177,IN,Wayne County,39.863091,-85.006735,171.5,45130,38,7
18179,IN,Wells County,40.735273,-85.212974,75.1,60010,40,7
18181,IN,White County,40.75095,-86.864293,48.8,58380,41.4,7
18183,IN,Whitley County,41.136426,-85.501892,99.2,67758,39.7,2
19001,IA,Adair County,41.328528,-94.478164,13.5,54282,43.1,7
19003,IA,Adams County,41.021656,-94.696906,9.5,51577,39.1,4
19005,IA,Allamakee County,43.274964,-91.382751,22.4,53359,38.9,3
19007,IA,Appanoose County,40.744683,-92.870345,25.9,44298,37,7
19009,IA,Audubon County,41.679178,-94.904312,13.8,51210,40.1,2
19011,IA,Benton County,42.092547,-92.05763,36.4,62799,36.3,6
19013,IA,Black Hawk County,42.472888,-92.306059,231.7,52320,30.2,3
19015,IA,Boone County,42.038601,-93.939138,46,63099,32.3,6
19017,IA,Bremer County,42.78089,-92.327586,55.7,74646,32.3,7
19019,IA,Buchanan County,42.470328,-91.838666,36.7,59724,38.9,5
19021,IA,Buena Vista County,42.741522,-95.141433,35.2,52683,29.5,2
19023,IA,Butler County,42.734708,-92.780066,25.6,57971,37.8,3
19025,IA,Calhoun County,42.38617,-94.643683,17,54865,36.4,2
19027,IA,Carroll County,42.039492,-94.867647,36.6,60531,36.3,3
19029,IA,Cass County,41.333824,-94.933302,24.7,50356,37.9,7
19031,IA,Cedar County,41.772355,-91.13219,31.9,67597,35.9,4
19033,IA,Cerro Gordo County,43.075171,-93.251266,77.7,51939,30.8,2
19035,IA,Cherokee County,42.742738,-95.633262,20.9,56312,35.9,6
19037,IA,Chickasaw County,43.059741,-92.31721,24.7,64190,43.5,7
19039,IA,Clarke County,41.029191,-93.784096,21.5,52541,41.4,5
19041,IA,Clay County,43.079822,-95.149726,29.4,56338,34.1,6
19043,IA,Clayton County,42.840998,-91.323511,23.3,53968,43.6,4
19045,IA,Clinton County,41.898073,-90.534243,70.7,51317,37.2,7
19047,IA,Crawford County,42.043119,-95.38909,23.9,54828,36,7
19049,IA,Dallas County,41.685321,-94.040707,112.4,87267,18,3
19051,IA,Davis County,40.748089,-92.410345,17.4,54830,33.8,7
19053,IA,Decatur County,40.736379,-93.78458,15.9,41101,37.6,6
19055,IA,Delaware County,42.473003,-91.359443,30.7,61342,43.1,7
19057,IA,Des Moines County,40.915339,-91.186925,96.9,51805,32.8,7
19059,IA,Dickinson County,43.389611,-95.196057,43.8,55603,28.1,2
19061,IA,Dubuque County,42.463481,-90.878771,154,60367,33,3
19063,IA,Emmet County,43.377984,-94.66937,26,51497,33.3,5
19065,IA,Fayette County,42.86445,-91.839373,28.6,50893,38.9,2
19067,IA,Floyd County,43.052741,-92.787367,32.6,53811,34,7
19069,IA,Franklin County,42.736549,-93.271425,18.4,59367,36,5
19071,IA,Fremont County,40.743726,-95.599516,14.6,54658,35.9,7
19073,IA,Greene County,42.042494,-94.388703,16.4,51861,39.5,7
19075,IA,Grundy County,42.403323,-92.790261,24.8,65060,30.8,3
19077,IA,Guthrie County,41.683573,-94.501272,18.5,60306,38.6,3
19079,IA,Hamilton County,42.390768,-93.709198,27.2,56738,31.4,3
19081,IA,Hancock County,43.075411,-93.743697,19.9,60859,36.5,2
19083,IA,Hardin County,42.389955,-93.241081,30.8,55303,34.4,3
19085,IA,Harrison County,41.688584,-95.827149,21.4,60044,38,6
19087,IA,Henry County,40.985864,-91.54427,46.4,55856,37.7,6
19089,IA,Howard County,43.365313,-92.321908,20.2,53500,40.8,2
19091,IA,Humboldt County,42.782221,-94.202775,22.6,60166,35.9,7
19093,IA,Ida County,42.39186,-95.507421,16.4,60312,38.3,7
19095,IA,Iowa County,41.683918,-92.059123,27.9,64188,37.7,3
19097,IA,Jackson County,42.164281,-90.574597,31.2,54663,41.9,3
19099,IA,Jasper County,41.685686,-93.052971,50.4,60378,42.4,5
19101,IA,Jefferson County,41.00688,-91.967137,38.7,46715,27.7,7
19103,IA,Johnson County,41.668737,-91.588812,213.1,64387,16.2,4
19105,IA,Jones County,42.125118,-91.116914,35.9,55405,39.7,3
19107,IA,Keokuk County,41.331182,-92.167721,18.1,52122,41.2,7
19109,IA,Kossuth County,43.212478,-94.213983,16,55486,37.6,6
19111,IA,Lee County,40.647588,-91.477157,69.3,48241,41,7
19113,IA,Linn County,42.077951,-91.597674,294.6,64878,27.1,7
19115,IA,Louisa County,41.218211,-91.256994,28.3,49585,36.5,1
19117,IA,Lucas County,41.033344,-93.331467,20.7,49956,41.6,7
19119,IA,Lyon County,43.38358,-96.207201,19.7,69048,36.5,3
19121,IA,Madison County,41.330622,-94.015184,27.9,74794,35.9,7
19123,IA,Mahaska County,41.330797,-92.636366,39.2,56492,38.8,6
19125,IA,Marion County,41.331455,-93.093849,60.1,63491,35.5,7
19127,IA,Marshall County,42.041691,-92.981452,71,59552,34.1,5
19129,IA,Mills County,41.033703,-95.619101,34.4,64271,34.6,3
19131,IA,Mitchell County,43.348564,-92.784466,23,59558,39.9,2
19133,IA,Monona County,42.049432,-95.956566,13.3,50530,39.7,2
19135,IA,Monroe County,41.028847,-92.869642,18.4,56541,40.7,7
19137,IA,Montgomery County,41.021735,-95.15779,25.3,49966,37.1,7
19139,IA,Muscatine County,41.483776,-91.118699,97.7,58465,34.7,2
19141,IA,O'Brien County,43.083746,-95.625624,25.1,53147,38,5
19143,IA,Osceola County,43.378542,-95.633788,16.2,60627,38.5,3
19145,IA,Page County,40.73909,-95.14429,29.8,54313,34.6,7
19147,IA,Palo Alto County,43.075854,-94.667297,16.7,55322,29,3
19149,IA,Plymouth County,42.737585,-96.215864,29,66360,33.8,3
19151,IA,Pocahontas County,42.734033,-94.678279,12.7,55865,38.6,2
19153,IA,Polk County,41.684281,-93.56972,750.5,68479,24.8,3
19155,IA,Pottawattamie County,41.340184,-95.544905,98,56337,33.1,5
19157,IA,Poweshiek County,41.684526,-92.522882,32.3,56170,37.5,5
19159,IA,Ringgold County,40.735334,-94.244251,9.6,48754,38.9,7
19161,IA,Sac County,42.387526,-95.105224,18,56698,37.2,4
19163,IA,Scott County,41.641679,-90.62229,360.7,59865,29.9,3
19165,IA,Shelby County,41.679014,-95.308917,20.6,58862,36.1,7
19167,IA,Sioux County,43.082854,-96.177929,43.9,70162,31.4,5
19169,IA,Story County,42.037538,-93.466093,156.3,57464,17.9,3
19171,IA,Tama County,42.074848,-92.529412,24.6,56954,40,3
19173,IA,Taylor County,40.737949,-94.697108,11.9,47781,39.2,7
19175,IA,Union County,41.02855,-94.245091,29.6,49887,36.3,3
19177,IA,Van Buren County,40.754117,-91.952943,15.6,47905,40.8,7
19179,IA,Wapello County,41.031263,-92.409482,82.5,48226,35.7,7
19181,IA,Warren County,41.336769,-93.564366,81.1,78192,30.4,3
19183,IA,Washington County,41.329401,-91.725052,38.2,65849,39.3,5
19185,IA,Wayne County,40.739983,-93.332613,12.2,46725,44.7,7
19187,IA,Webster County,42.434397,-94.179157,53.1,52093,34.1,3
19189,IA,Winnebago County,43.378124,-93.743488,27.1,54433,33.3,6
19191,IA,Winneshiek County,43.292989,-91.850788,30.5,61807,32.7,5
19193,IA,Woodbury County,42.39322,-96.053296,117.1,60059,32.2,3
19195,IA,Worth County,43.373491,-93.248533,19,58587,37.2,6
19197,IA,Wright County,42.733007,-93.734735,22.8,54802,35.9,6
20001,KS,Allen County,37.884229,-95.300945,26.7,44423,34,7
20003,KS,Anderson County,38.215114,-95.292046,14,50646,41.5,2
20005,KS,Atchison County,39.532544,-95.313398,39.3,49332,37.6,3
20007,KS,Barber County,37.222906,-98.685052,4.3,47634,34.9,4
20009,KS,Barton County,38.481239,-98.767837,30.9,49991,32.4,7
20011,KS,Bourbon County,37.8561,-94.850928,23.9,41807,30.8,5
20013,KS,Brown County,39.825931,-95.569905,17.5,47529,36,5
20015,KS,Butler County,37.773681,-96.838762,46.1,65953,26.5,7
20017,KS,Chase County,38.298553,-96.594064,3.6,50981,27.6,7
20019,KS,Chautauqua County,37.154259,-96.245396,5.7,41129,35.6,4
20021,KS,Cherokee County,37.169392,-94.845698,36.8,44475,33.5,7
20023,KS,Cheyenne County,39.789256,-101.727302,2.7,43274,30.2,7
20025,KS,Clark County,37.233831,-99.813869,2.3,51235,27.5,7
20027,KS,Clay County,39.344964,-97.168853,13.2,52681,29.8,3
20029,KS,Cloud County,39.487329,-97.64139,13.3,44467,30.5,5
20031,KS,Coffey County,38.23645,-95.729137,13.7,58371,33.4,7
20033,KS,Comanche County,37.189071,-99.254089,2.4,46818,32.8,7
20035,KS,Cowley County,37.234507,-96.837247,32.3,47864,30.7,7
20037,KS,Crawford County,37.505628,-94.853941,66.4,43852,28.2,2
20039,KS,Decatur County,39.783542,-100.459708,3.3,44774,32.5,4
20041,KS,Dickinson County,38.867735,-97.157943,23.3,50605,33.5,3
20043,KS,Doniphan County,39.788502,-95.147225,20.2,50949,36,7
20045,KS,Douglas County,38.896573,-95.290529,243.1,57120,18,2
20047,KS,Edwards County,37.883595,-99.304746,4.9,46962,27.3,4
20049,KS,Elk County,37.456026,-96.244642,4.5,37360,40.4,4
20051,KS,Ellis County,38.914596,-99.317329,31.6,53840,26.5,3
20053,KS,Ellsworth County,38.700845,-98.205355,9.1,50261,34,2
20055,KS,Finney County,38.049855,-100.739929,28.2,56206,21.7,5
20057,KS,Ford County,37.688365,-99.884734,30.8,56052,24.9,7
20059,KS,Franklin County,38.558019,-95.278962,45.5,58033,38.9,7
20061,KS,Geary County,39.002155,-96.768038,89.3,50856,26.1,2
20063,KS,Gove County,38.917239,-100.48736,2.5,49626,33.8,4
20065,KS,Graham County,39.349445,-99.880952,2.9,41906,35,2
20067,KS,Grant County,37.547537,-101.299362,13.6,61614,27.9,7
20069,KS,Gray County,37.744513,-100.451716,6.9,65771,22.3,5
20071,KS,Greeley County,38.480408,-101.805984,1.6,51606,29,7
20073,KS,Greenwood County,37.878659,-96.242232,5.9,43083,34.6,7
20075,KS,Hamilton County,37.995244,-101.793689,2.7,51559,35.1,2
20077,KS,Harper County,37.188184,-98.06659,7.5,45570,40,7
20079,KS,Harvey County,38.050144,-97.436707,64.3,57934,26.3,5
20081,KS,Haskell County,37.55855,-100.876869,7.4,60808,18.7,4
20083,KS,Hodgeman County,38.087493,-99.898407,2.2,54058,20.7,4
20085,KS,Jackson County,39.410989,-95.794509,20.5,56330,39.1,7
20087,KS,Jefferson County,39.239644,-95.375314,35.9,69246,40.4,5
20089,KS,Jewell County,39.77701,-98.222584,3.4,44271,42.4,7
20091,KS,Johnson County,38.883907,-94.82233,1149.6,87087,14.4,3
20093,KS,Kearny County,37.994461,-101.308136,4.6,63248,26.6,7
20095,KS,Kingman County,37.552951,-98.144529,9.1,56005,31.8,7
20097,KS,Kiowa County,37.561231,-99.286539,3.5,64399,27.9,7
20099,KS,Labette County,37.191468,-95.297473,33.5,44571,32.6,7
20101,KS,Lane County,38.481286,-100.466185,2.4,59240,32.8,4
20103,KS,Leavenworth County,39.189511,-95.038977,164.7,70807,28.7,5
20105,KS,Lincoln County,39.047276,-98.214265,4.5,44439,31.8,1
20107,KS,Linn County,38.216549,-94.844932,16.3,47153,38.5,7
20109,KS,Logan County,38.91327,-101.157407,2.6,50267,29.4,4
20111,KS,Lyon County,38.455498,-96.161589,39.8,47982,30.9,6
20113,KS,McPherson County,38.395812,-97.647489,32.5,58017,27.3,5
20115,KS,Marion County,38.359647,-97.102771,13.4,51712,30.9,3
20117,KS,Marshall County,39.782709,-96.521243,11.2,51066,43.2,7
20119,KS,Meade County,37.243886,-100.360094,4.7,67220,29,7
20121,KS,Miami County,38.566772,-94.832963,57,71770,32.2,3
20123,KS,Mitchell County,39.393026,-98.207362,9.1,51514,32.7,1
20125,KS,Montgomery County,37.189537,-95.742403,55.1,42479,29.1,2
20127,KS,Morris County,38.687696,-96.644905,8.5,49287,37,7
20129,KS,Morton County,37.18525,-101.809516,4.4,53785,30.8,4
20131,KS,Nemaha County,39.791043,-96.005381,14.2,59567,38.8,2
20133,KS,Neosho County,37.564283,-95.315683,28.9,46176,31.4,4
20135,KS,Ness County,38.480437,-99.908745,2.9,51757,33.7,7
20137,KS,Norton County,39.783867,-99.899235,6.5,47252,36.6,1
20139,KS,Osage County,38.649706,-95.727275,23.1,53864,39.2,2
20141,KS,Osborne County,39.348649,-98.767876,4.3,46101,34.6,1
20143,KS,Ottawa County,39.137963,-97.654803,8.5,56451,36.5,3
20145,KS,Pawnee County,38.182873,-99.232154,9.2,47039,29.6,2
20147,KS,Phillips County,39.784506,-99.34215,6.4,47405,36.2,2
20149,KS,Pottawatomie County,39.382187,-96.337113,25.7,69975,29.2,2
20151,KS,Pratt County,37.647594,-98.74012,13.1,52567,24.8,4
20153,KS,Rawlins County,39.786198,-101.076738,2.4,46638,30.4,4
20155,KS,Reno County,37.948185,-98.078346,51.4,49341,27.9,5
20157,KS,Republic County,39.82891,-97.650921,6.9,48566,32.4,2
20159,KS,Rice County,38.347178,-98.201415,13.9,51686,28.7,7
20161,KS,Riley County,39.291211,-96.727489,116.6,47057,18.5,3
20163,KS,Rooks County,39.346006,-99.324492,5.8,47365,31.3,7
20165,KS,Rush County,38.523592,-99.309183,4.6,44121,26.8,4
20167,KS,Russell County,38.916839,-98.765638,7.9,45879,27.3,7
20169,KS,Saline County,38.786327,-97.650153,77.2,53961,31,3
20171,KS,Scott County,38.481877,-100.90636,6.9,63790,28.9,7
20173,KS,Sedgwick County,37.683807,-97.459451,499.6,56381,26.2,5
20175,KS,Seward County,37.180585,-100.854741,35.9,50671,30.6,3
20177,KS,Shawnee County,39.041805,-95.755664,327.1,53612,31.3,3
20179,KS,Sheridan County,39.350543,-100.441206,2.9,50553,33.2,1
20181,KS,Sherman County,39.351352,-101.719859,5.7,45966,31.9,7
20183,KS,Smith County,39.78466,-98.78543,4.3,41899,36.6,4
20185,KS,Stafford County,38.03563,-98.719889,5.6,47835,30.3,7
20187,KS,Stanton County,37.565932,-101.789383,3.3,60136,30.2,7
20189,KS,Stevens County,37.202356,-101.315796,7.9,58817,28.6,4
20191,KS,Sumner County,37.236663,-97.493349,20.4,56946,34.1,2
20193,KS,Thomas County,39.357706,-101.083439,7.4,55345,25.5,7
20195,KS,Trego County,38.921302,-99.865423,3.4,48520,30.6,4
20197,KS,Wabaunsee County,38.955154,-96.201262,8.9,59744,34.6,6
20199,KS,Wallace County,38.926626,-101.771103,1.6,51350,27.1,4
20201,KS,Washington County,39.776714,-97.095611,6.5,48104,37.6,4
20203,KS,Wichita County,38.481922,-101.347434,3.1,59800,29.2,4
20205,KS,Wilson County,37.558515,-95.745175,16.5,45697,35.2,1
20207,KS,Woodson County,37.888484,-95.757553,6.6,43894,36.5,4
20209,KS,Wyandotte County,39.115384,-94.763087,1039,47084,32.6,3
21001,KY,Adair County,37.105541,-85.281401,46,37392,38.7,3
21003,KY,Allen County,36.75077,-86.192458,58,44624,39.5,3
21005,KY,Anderson County,38.005396,-84.986417,106.1,60908,36.8,7
21007,KY,Ballard County,37.05112,-89.009178,33.4,47658,37.7,7
21009,KY,Barren County,36.963614,-85.92499,86.5,42439,41.6,5
21011,KY,Bath County,38.152249,-83.737641,41.6,44183,42.1,2
21013,KY,Bell County,36.72268,-83.681046,79.9,29362,38.6,2
21015,KY,Boone County,38.974595,-84.731444,482.3,77696,27.9,3
21017,KY,Bourbon County,38.202562,-84.20986,69,48614,37.3,7
21019,KY,Boyd County,38.360004,-82.681406,309.9,48020,32.5,4
21021,KY,Boyle County,37.6182,-84.873016,157.8,47528,34.7,7
21023,KY,Bracken County,38.678523,-84.100355,41.3,56432,44,7
21025,KY,Breathitt County,37.521178,-83.322401,28.2,31182,36.4,3
21027,KY,Breckinridge County,37.778109,-86.432829,35.4,47284,44.6,7
21029,KY,Bullitt County,37.969572,-85.703036,250.2,61022,41.6,7
21031,KY,Butler County,37.207013,-86.682471,29.8,43048,42.7,3
21033,KY,Caldwell County,37.148643,-87.87051,37.7,43659,46,2
21035,KY,Calloway County,36.620978,-88.274086,96.6,41873,32.4,7
21037,KY,Campbell County,38.946981,-84.379583,597,60904,29.9,3
21039,KY,Carlisle County,36.857726,-88.975757,26.9,41249,36.5,7
21041,KY,Carroll County,38.668284,-85.124083,84.1,47623,42,2
21043,KY,Carter County,38.309555,-83.048821,67.7,32906,40.1,2
21045,KY,Casey County,37.321962,-84.92822,35.9,34358,38.4,2
21047,KY,Christian County,36.893388,-87.493554,103.1,40299,32.1,5
21049,KY,Clark County,37.970133,-84.144974,141.1,50162,34.8,2
21051,KY,Clay County,37.164466,-83.710763,46.3,28146,34.2,3
21053,KY,Clinton County,36.729124,-85.153499,52.1,31118,38.8,7
21055,KY,Crittenden County,37.358149,-88.10501,25.9,43624,42.2,7
21057,KY,Cumberland County,36.784227,-85.393499,22.5,33541,41.6,7
21059,KY,Daviess County,37.731671,-87.087139,210.9,51441,34.7,5
21061,KY,Edmonson County,37.227856,-86.217778,40.2,43151,42,7
21063,KY,Elliott County,38.116425,-83.097541,33.5,35446,43.7,7
21065,KY,Estill County,37.69246,-83.963927,58,35701,45.5,7
21067,KY,Fayette County,38.040157,-84.458443,1042.8,55358,20,6
21069,KY,Fleming County,38.368431,-83.706152,41.2,42571,38.3,2
21071,KY,Floyd County,37.558283,-82.740337,100.3,33218,35.8,6
21073,KY,Franklin County,38.234919,-84.868786,237.2,53134,30.6,7
21075,KY,Fulton County,36.55262,-89.187723,33.2,32355,38.9,7
21077,KY,Gallatin County,38.760184,-84.862114,84.8,49060,46.4,3
21079,KY,Garrard County,37.630162,-84.545856,73.5,51203,36.7,3
21081,KY,Grant County,38.64921,-84.625946,95.6,53965,48.7,7
21083,KY,Graves County,36.723344,-88.649897,67.3,46785,39.4,3
21085,KY,Grayson County,37.458577,-86.344011,51.8,40780,41.7,7
21087,KY,Green County,37.269637,-85.561403,39.4,36782,40.2,3
21089,KY,Greenup County,38.563596,-82.933833,107.2,49457,36.8,5
21091,KY,Hancock County,37.843389,-86.792773,45.6,56769,42.8,2
21093,KY,Hardin County,37.695836,-85.963183,169.3,52278,30.3,7
21095,KY,Harlan County,36.859223,-83.221497,62.9,29521,34.7,7
21097,KY,Harrison County,38.443489,-84.332796,61.5,51709,40.3,3
21099,KY,Hart County,37.313856,-85.881995,44.2,37038,40.4,7
21101,KY,Henderson County,37.792542,-87.572577,105.9,51161,35.6,3
21103,KY,Henry County,38.451561,-85.120079,53.9,53405,42.1,7
21105,KY,Hickman County,36.675916,-88.97202,20.2,44290,39.4,7
21107,KY,Hopkins County,37.31107,-87.542196,86.6,45512,41.5,2
21109,KY,Jackson County,37.40332,-84.020686,39.1,35317,42.6,7
21111,KY,Jefferson County,38.189533,-85.657624,1948.1,55860,26.8,7
21113,KY,Jessamine County,37.873291,-84.58396,282.3,59443,30.3,6
21115,KY,Johnson County,37.84926,-82.830639,89.2,39381,34.8,7
21117,KY,Kenton County,38.930477,-84.533492,996.7,64644,28.7,6
21119,KY,Knott County,37.354703,-82.949138,46.5,32228,32.4,7
21121,KY,Knox County,36.887476,-83.85563,82.5,30742,37.9,5
21123,KY,Larue County,37.545518,-85.697209,54.3,45458,40.2,7
21125,KY,Laurel County,37.113268,-84.119395,135.6,41425,40.6,3
21127,KY,Lawrence County,38.074459,-82.738305,38.2,36667,42.9,4
21129,KY,Lee County,37.605383,-83.718497,37.8,29124,37.2,7
21131,KY,Leslie County,37.087846,-83.388616,28.2,31921,38.6,7
21133,KY,Letcher County,37.118503,-82.861175,72.6,32321,37.5,6
21135,KY,Lewis County,38.532051,-83.373303,28.7,35751,40.2,7
21137,KY,Lincoln County,37.457257,-84.658074,74.1,42190,43.8,3
21139,KY,Livingston County,37.209517,-88.363426,30.4,48182,44.5,2
21141,KY,Logan County,36.859829,-86.881436,48.6,46742,43.7,5
21143,KY,Lyon County,37.023976,-88.083391,38.9,48395,41.2,7
21145,KY,McCracken County,37.053688,-88.712378,263.6,48950,30.1,5
21147,KY,McCreary County,36.731136,-84.491052,42.9,30029,42.7,7
21149,KY,McLean County,37.530575,-87.262931,37.8,48080,41.3,4
21151,KY,Madison County,37.723528,-84.277008,189.6,51897,27.8,7
21153,KY,Magoffin County,37.698954,-83.069716,43.2,30950,32.7,7
21155,KY,Marion County,37.552247,-85.269242,57.8,45661,42.7,4
21157,KY,Marshall County,36.882017,-88.332752,104.4,52388,37.7,5
21159,KY,Martin County,37.796774,-82.506623,56.3,28925,39.3,5
21161,KY,Mason County,38.594068,-83.828052,72.8,41807,37.7,2
21163,KY,Meade County,37.967476,-86.200863,93.6,57613,34.3,7
21165,KY,Menifee County,37.950715,-83.597345,31,34002,43.8,1
21167,KY,Mercer County,37.812085,-84.879695,85.7,53921,38.4,5
21169,KY,Metcalfe County,36.990394,-85.629554,34.9,35906,37,6
21171,KY,Monroe County,36.714077,-85.713508,33.3,35596,40.2,3
21173,KY,Montgomery County,38.038138,-83.912338,134.3,46629,40.8,6
21175,KY,Morgan County,37.92294,-83.258944,36.5,35848,37.1,1
21177,KY,Muhlenberg County,37.213816,-87.134092,67.4,43722,43.2,2
21179,KY,Nelson County,37.803188,-85.465955,104,55602,38.7,6
21181,KY,Nicholas County,38.337132,-84.025554,36.6,41428,42.5,1
21183,KY,Ohio County,37.477859,-86.844871,40.6,44751,42.8,2
21185,KY,Oldham County,38.400046,-85.456059,322.2,102136,21.3,6
21187,KY,Owen County,38.499603,-84.841509,30.9,48998,50,7
21189,KY,Owsley County,37.423452,-83.691566,24.1,26278,37,7
21191,KY,Pendleton County,38.690765,-84.354041,53.7,54583,43.5,7
21193,KY,Perry County,37.241282,-83.217772,84.5,33108,34.8,6
21195,KY,Pike County,37.482067,-82.402869,82.6,37124,38.5,5
21197,KY,Powell County,37.810379,-83.826985,70.5,37776,42,7
21199,KY,Pulaski County,37.108312,-84.579986,95.8,41541,37.6,5
21201,KY,Robertson County,38.513826,-84.063757,22.8,45146,33.8,4
21203,KY,Rockcastle County,37.36122,-84.314419,53.9,37732,43.6,4
21205,KY,Rowan County,38.205894,-83.425969,83.4,41196,29.5,3
21207,KY,Russell County,36.989127,-85.058976,69.2,34648,36.3,3
21209,KY,Scott County,38.289882,-84.579376,167.4,73500,30.5,6
21211,KY,Shelby County,38.239426,-85.22836,110.8,66056,31,3
21213,KY,Simpson County,36.740863,-86.581464,74,51769,44.7,5
21215,KY,Spencer County,38.026976,-85.321525,91.4,85899,35.1,6
21217,KY,Taylor County,37.365106,-85.326698,92,45429,39.5,6
21219,KY,Todd County,36.840338,-87.183642,33.3,51027,38.8,4
21221,KY,Trigg County,36.807681,-87.858652,32.5,49767,31.3,2
21223,KY,Trimble County,38.618193,-85.355171,58.1,51674,47.2,1
21225,KY,Union County,37.658029,-87.95165,43.8,47067,45.9,7
21227,KY,Warren County,36.995634,-86.423579,210.1,53478,28.1,5
21229,KY,Washington County,37.754209,-85.175416,39.4,50246,42,7
21231,KY,Wayne County,36.802011,-84.83044,45.4,33701,37.4,5
21233,KY,Webster County,37.520021,-87.685095,41,47132,46.1,3
21235,KY,Whitley County,36.758021,-84.14455,81.4,36863,37.3,3
21237,KY,Wolfe County,37.743774,-83.495068,33.1,30144,37.8,7
21239,KY,Woodford County,38.042789,-84.748147,132.1,66164,27.5,7
22001,LA,Acadia Parish,30.291497,-92.411037,94.3,40484,41.2,2
22003,LA,Allen Parish,30.652744,-92.819605,33.8,44395,42.9,3
22005,LA,Ascension Parish,30.202946,-90.910023,369.7,77758,32.4,3
22007,LA,Assumption Parish,29.899884,-91.050528,69.2,48120,43.7,3
22009,LA,Avoyelles Parish,31.085094,-91.993798,50.5,37731,38.9,5
22011,LA,Beauregard Parish,30.645018,-93.340253,30.8,57005,38.1,2
22013,LA,Bienville Parish,32.344268,-93.061513,17.7,34047,41.7,5
22015,LA,Bossier Parish,32.696202,-93.617977,139.3,56754,29.5,3
22017,LA,Caddo Parish,32.577195,-93.882423,290.2,40467,33.4,3
22019,LA,Calcasieu Parish,30.229559,-93.358015,181.2,50531,33.8,2
22021,LA,Caldwell Parish,32.101244,-92.11418,19.1,40842,43.2,5
22023,LA,Cameron Parish,29.871989,-93.165437,5.3,57299,38.8,2
22025,LA,Catahoula Parish,31.666517,-91.846703,14.7,35812,42.5,5
22027,LA,Claiborne Parish,32.827585,-92.991125,22.8,33659,41.4,7
22029,LA,Concordia Parish,31.469806,-91.626314,29.9,35840,41.4,5
22031,LA,De Soto Parish,32.059248,-93.740797,30.4,44457,42.8,5
22033,LA,East Baton Rouge Parish,30.544002,-91.093174,966.6,52945,27.3,3
22035,LA,East Carroll Parish,32.73017,-91.234141,18.4,27714,38.8,5
22037,LA,East Feliciana Parish,30.839784,-91.043434,44.7,45174,42.5,6
22039,LA,Evangeline Parish,30.720693,-92.404086,51.3,34113,39.8,3
22041,LA,Franklin Parish,32.138279,-91.672101,33.2,34446,42.9,5
22043,LA,Grant Parish,31.597787,-92.561716,34.7,43502,43.5,3
22045,LA,Iberia Parish,29.606013,-91.842706,127.6,42909,42.8,2
22047,LA,Iberville Parish,30.288394,-91.36315,54,47917,40.4,5
22049,LA,Jackson Parish,32.30448,-92.556672,28.6,40828,43.3,5
22051,LA,Jefferson Parish,29.5033,-90.036231,1463.1,50871,31.2,3
22053,LA,Jefferson Davis Parish,30.269529,-92.816221,48.5,44492,41.7,2
22055,LA,Lafayette Parish,30.206507,-92.06417,824.6,57821,30.2,2
22057,LA,Lafourche Parish,29.491993,-90.394849,90.2,52651,40.2,3
22059,LA,LaSalle Parish,31.680836,-92.161809,23.8,45742,41.8,7
22061,LA,Lincoln Parish,32.601148,-92.662082,99.1,36525,27.3,3
22063,LA,Livingston Parish,30.440419,-90.727474,197.5,63088,39,3
22065,LA,Madison Parish,32.365824,-91.240729,19.4,28452,39,5
22067,LA,Morehouse Parish,32.820008,-91.800399,35.2,34023,44.2,7
22069,LA,Natchitoches Parish,31.734982,-93.086106,31.6,36298,35,3
22071,LA,Orleans Parish,30.068636,-89.939007,2029.4,38855,22.9,3
22073,LA,Ouachita Parish,32.477495,-92.154798,251.8,44371,33.9,3
22075,LA,Plaquemines Parish,29.402337,-89.298489,29.5,58643,34.5,4
22077,LA,Pointe Coupee Parish,30.708319,-91.604621,40.9,46603,40.2,3
22079,LA,Rapides Parish,31.193204,-92.535953,99.9,48116,37.5,3
22081,LA,Red River Parish,32.101213,-93.34905,23.4,36865,40,7
22083,LA,Richland Parish,32.418121,-91.758375,37.1,35103,40.6,3
22085,LA,Sabine Parish,31.560209,-93.559228,28,36423,46.4,3
22087,LA,St. Bernard Parish,29.91811,-89.263494,95.1,43983,37.3,3
22089,LA,St. Charles Parish,29.913833,-90.359314,189.1,67585,34.8,5
22091,LA,St. Helena Parish,30.821423,-90.70935,27.4,38699,40,6
22093,LA,St. James Parish,30.02482,-90.793956,91.5,53903,42.9,5
22095,LA,St. John the Baptist Parish,30.117471,-90.504677,215.5,50830,38,3
22097,LA,St. Landry Parish,30.583441,-91.989275,90.3,36624,40.9,3
22099,LA,St. Martin Parish,30.121433,-91.611481,70.7,46229,42,3
22101,LA,St. Mary Parish,29.629349,-91.463804,98.4,39764,50,3
22103,LA,St. Tammany Parish,30.410022,-89.951962,276.4,67054,26.3,3
22105,LA,Tangipahoa Parish,30.621581,-90.406633,153,47128,37.8,3
22107,LA,Tensas Parish,32.001489,-91.342576,8.7,28962,47.1,7
22109,LA,Terrebonne Parish,29.333266,-90.844191,90.8,51665,38.6,2
22111,LA,Union Parish,32.829349,-92.37565,25.9,43584,47.1,6
22113,LA,Vermilion Parish,29.786872,-92.29009,49.4,48263,41.9,3
22115,LA,Vernon Parish,31.110563,-93.18152,39.4,47664,37.4,2
22117,LA,Washington Parish,30.852144,-90.046253,70.4,36850,42.8,3
22119,LA,Webster Parish,32.732152,-93.339825,69.5,35070,41.6,3
22121,LA,West Baton Rouge Parish,30.464052,-91.309808,123.6,58205,38.8,3
22123,LA,West Carroll Parish,32.79248,-91.451998,32.3,39332,43.4,3
22125,LA,West Feliciana Parish,30.872701,-91.421008,38.8,60296,35.7,6
22127,LA,Winn Parish,31.941187,-92.641269,16.1,40133,43.8,3
23001,ME,Androscoggin County,44.167681,-70.207435,230.2,49935,36.5,7
23003,ME,Aroostook County,46.727057,-68.64941,10.8,39450,37.2,7
23005,ME,Cumberland County,43.808348,-70.330375,337.2,71586,22.3,2
23007,ME,Franklin County,44.973012,-70.444727,18.1,49561,37.2,1
23009,ME,Hancock County,44.564906,-68.370703,34.3,52148,32.3,7
23011,ME,Kennebec County,44.417012,-69.765764,140.8,52154,32.9,7
23013,ME,Knox County,44.042045,-69.038515,108.8,56678,33.5,7
23015,ME,Lincoln County,43.994265,-69.514029,75.6,56211,33.2,2
23017,ME,Oxford County,44.494585,-70.734688,27.8,44243,43.3,2
23019,ME,Penobscot County,45.390602,-68.657487,45.3,47840,33.6,2
23021,ME,Piscataquis County,45.917678,-69.104548,4.4,40066,40.4,2
23023,ME,Sagadahoc County,43.916694,-69.843994,139.1,65969,30.1,7
23025,ME,Somerset County,45.507482,-69.97604,13.3,43755,40.2,1
23027,ME,Waldo County,44.505361,-69.139678,53.1,49482,32.6,1
23029,ME,Washington County,44.967009,-67.609354,12.8,39522,39,2
23031,ME,York County,43.427239,-70.670402,199,65984,30.6,3
24001,MD,Allegany County,39.612309,-78.703108,177,43535,41.9,7
24003,MD,Anne Arundel County,38.993374,-76.560511,1295.9,97051,23.8,6
24005,MD,Baltimore County,39.443167,-76.616569,1345.5,75836,26.2,6
24009,MD,Calvert County,38.521358,-76.525864,416.3,106270,30.3,7
24011,MD,Caroline County,38.871531,-75.831631,103.5,56627,40.7,5
24013,MD,Carroll County,39.563189,-77.015512,373.4,95956,29.9,5
24015,MD,Cecil County,39.562352,-75.941584,292,72739,37.7,5
24017,MD,Charles County,38.472853,-77.015427,320.2,92616,31.4,6
24019,MD,Dorchester County,38.429196,-76.047433,60.3,48682,39.4,6
24021,MD,Frederick County,39.470427,-77.397627,353.5,95196,24.3,6
24023,MD,Garrett County,39.529871,-79.269416,46.5,49147,43.8,3
24025,MD,Harford County,39.537429,-76.299789,560.1,87959,26.6,6
24027,MD,Howard County,39.252264,-76.924406,1144.9,116719,14,5
24029,MD,Kent County,39.239177,-76.1242,72.9,55514,28.6,6
24031,MD,Montgomery County,39.137382,-77.203063,1978.2,107758,13.3,5
24033,MD,Prince George's County,38.82588,-76.847272,1788.8,82445,25.7,5
24035,MD,Queen Anne's County,39.040693,-76.082405,128.5,93751,29.6,3
24037,MD,St. Mary's County,38.222666,-76.534271,294.4,89964,30,6
24039,MD,Somerset County,38.07445,-75.853323,82.8,42098,40.3,5
24041,MD,Talbot County,38.749427,-76.17913,140.7,64245,25.6,3
24043,MD,Washington County,39.603621,-77.814671,322.1,62556,36.4,6
24045,MD,Wicomico County,38.367389,-75.632206,263.7,54313,32.5,5
24047,MD,Worcester County,38.222133,-75.309932,109.9,59266,31.6,7
24510,MD,Baltimore city,39.300214,-76.610516,7671.5,50501,29.9,7
25001,MA,Barnstable County,41.798819,-70.211083,548.3,69001,24.3,6
25003,MA,Berkshire County,42.375314,-73.213948,141.6,58375,29.9,3
25005,MA,Bristol County,41.748576,-71.087062,991.3,66005,29.9,5
25007,MA,Dukes County,41.380939,-70.701536,160.2,70224,24.3,1
25009,MA,Essex County,42.642711,-70.865107,1508.8,76373,25.2,7
25011,MA,Franklin County,42.583791,-72.591655,102.1,58992,28,2
25013,MA,Hampden County,42.136198,-72.635648,751,52682,29.5,5
25015,MA,Hampshire County,42.339459,-72.663694,299.8,74456,23.6,7
25017,MA,Middlesex County,42.479477,-71.396507,1837.9,100374,19.6,6
25019,MA,Nantucket County,41.305878,-70.14191,226.2,97525,18.4,4
25021,MA,Norfolk County,42.169703,-71.179875,1693.6,100184,19.5,5
25023,MA,Plymouth County,41.987196,-70.741942,750.9,89678,27.9,6
25025,MA,Suffolk County,42.33196,-71.020173,12415.6,68743,22.4,6
25027,MA,Worcester County,42.311693,-71.940282,528.6,71767,28.1,5
26001,MI,Alcona County,44.682535,-82.83408,16.2,39862,39.2,2
26003,MI,Alger County,47.080077,-86.564108,10.5,47441,44.3,7
26005,MI,Allegan County,42.595788,-86.634745,135,62247,37.8,3
26007,MI,Alpena County,44.894954,-83.426574,51.8,42792,33.5,7
26009,MI,Antrim County,45.005457,-85.175625,49.6,56456,32,4
26011,MI,Arenac County,44.03687,-83.740675,43.8,42540,42.3,7
26013,MI,Baraga County,46.696068,-88.356022,9.9,43435,43.4,4
26015,MI,Barry County,42.582811,-85.31455,107,64121,37.8,5
26017,MI,Bay County,43.699711,-83.978701,243.7,50576,34.7,7
26019,MI,Benzie County,44.648621,-86.494317,54.8,51905,31.8,2
26021,MI,Berrien County,41.792639,-86.741822,276.2,51509,28.9,3
26023,MI,Branch County,41.918585,-85.066523,89.4,50477,41.3,7
26025,MI,Calhoun County,42.24299,-85.012385,192.8,48413,36.4,3
26027,MI,Cass County,41.91624,-85.999457,106.7,55978,33.2,6
26029,MI,Charlevoix County,45.513164,-85.450392,62.3,54491,29.5,5
26031,MI,Cheboygan County,45.47612,-84.495271,36.6,48589,37.9,7
26033,MI,Chippewa County,46.321819,-84.52063,24.7,47380,35,5
26035,MI,Clare County,43.991137,-84.838325,54.8,39394,38.2,7
26037,MI,Clinton County,42.950455,-84.591695,133.1,70967,27,2
26039,MI,Crawford County,44.680208,-84.611132,25.3,46930,33.8,2
26041,MI,Delta County,45.805101,-86.901373,31.7,49292,33.3,7
26043,MI,Dickinson County,46.012823,-87.866119,34.4,52348,33.8,6
26045,MI,Eaton County,42.589614,-84.846524,187.4,66716,28,3
26047,MI,Emmet County,45.590094,-84.986822,69.9,58891,24.5,3
26049,MI,Genesee County,43.021077,-83.706372,668.5,48370,31.9,5
26051,MI,Gladwin County,43.98975,-84.389816,51.2,44635,39.6,7
26053,MI,Gogebic County,46.488054,-89.788314,14.9,39934,37.6,7
26055,MI,Grand Traverse County,44.718688,-85.553848,187.3,64591,24.4,2
26057,MI,Gratiot County,43.292326,-84.60469,74.7,48988,40.4,3
26059,MI,Hillsdale County,41.864475,-84.642409,78.1,50388,38.5,7
26061,MI,Houghton County,46.998305,-88.652066,36.3,42282,33.7,2
26063,MI,Huron County,43.907616,-82.857045,39.6,45817,42.2,4
26065,MI,Ingham County,42.603534,-84.373811,505.1,52837,21.7,3
26067,MI,Ionia County,42.94465,-85.073766,111.9,61667,39.6,4
26069,MI,Iosco County,44.329482,-82.849447,47.1,41256,37.8,6
26071,MI,Iron County,46.170249,-88.540409,10.1,40959,43.8,7
26073,MI,Isabella County,43.645233,-84.839425,122.8,47056,31.5,2
26075,MI,Jackson County,42.248474,-84.420868,228.4,52047,33,3
26077,MI,Kalamazoo County,42.246266,-85.532854,445.7,55881,22,3
26079,MI,Kalkaska County,44.678881,-85.088992,30.6,46068,41.4,3
26081,MI,Kent County,43.032497,-85.547446,711.5,61675,24.4,3
26083,MI,Keweenaw County,47.681981,-88.148802,4,51641,32.8,4
26085,MI,Lake County,43.995187,-85.8114,20.3,36044,42.6,7
26087,MI,Lapeer County,43.088633,-83.224325,137.4,65209,35.7,7
26089,MI,Leelanau County,45.146182,-86.051574,62.5,67349,21.8,3
26091,MI,Lenawee County,41.895915,-84.066853,133.3,55762,37.1,3
26093,MI,Livingston County,42.602532,-83.911718,320.2,84048,25.9,6
26095,MI,Luce County,46.940602,-85.582368,7.4,43196,38.5,7
26097,MI,Mackinac County,46.167981,-85.303756,10.9,46645,34.3,7
26099,MI,Macomb County,42.671467,-82.910869,1754.9,62191,29.7,7
26101,MI,Manistee County,44.350385,-86.602967,45.6,47401,36.1,7
26103,MI,Marquette County,46.656597,-87.584028,37.1,54093,31.5,6
26105,MI,Mason County,43.996636,-86.750814,58,51083,33.5,2
26107,MI,Mecosta County,43.635295,-85.332751,77.1,45804,36.2,6
26109,MI,Menominee County,45.544174,-87.509892,23,46486,42.8,6
26111,MI,Midland County,43.648378,-84.37922,162,58057,29,7
26113,MI,Missaukee County,44.325424,-85.085471,26.3,48413,42,2
26115,MI,Monroe County,41.916097,-83.487106,276.7,62522,36.1,7
26117,MI,Montcalm County,43.312782,-85.149468,89.8,50396,39.9,3
26119,MI,Montmorency County,45.024134,-84.130107,17.9,40650,43.1,2
26121,MI,Muskegon County,43.289258,-86.751892,344.9,49960,34.5,7
26123,MI,Newaygo County,43.562709,-85.791423,59.6,48860,40.3,2
26125,MI,Oakland County,42.660452,-83.38421,1385.7,80319,18.8,6
26127,MI,Oceana County,43.647255,-86.807575,51.9,50374,35.4,2
26129,MI,Ogemaw County,44.33328,-84.128073,38.5,41201,39,2
26131,MI,Ontonagon County,47.216604,-89.500461,5.2,40798,40.7,7
26133,MI,Osceola County,43.997552,-85.322283,41.5,45607,44.3,2
26135,MI,Oscoda County,44.685121,-84.124894,15.3,38927,37.6,1
26137,MI,Otsego County,45.021794,-84.576597,46.9,51292,33.9,7
26139,MI,Ottawa County,42.942346,-86.655342,468.2,70420,28.6,3
26141,MI,Presque Isle County,45.489515,-83.384019,20.3,45502,39.4,7
26143,MI,Roscommon County,44.339517,-84.611272,47.1,38613,40.7,7
26145,MI,Saginaw County,43.328267,-84.05541,250.2,48805,33.6,7
26147,MI,St. Clair County,42.928804,-82.668914,226.1,56557,34.4,7
26149,MI,St. Joseph County,41.911488,-85.52287,122.4,52689,38.2,3
26151,MI,Sanilac County,43.449155,-82.642815,44.8,46184,41.5,6
26153,MI,Schoolcraft County,46.020758,-86.199352,7.2,44887,44.3,2
26155,MI,Shiawassee County,42.951545,-84.146352,133.1,54149,36.3,7
26157,MI,Tuscola County,43.487902,-83.436618,69.4,51113,41.7,7
26159,MI,Van Buren County,42.283986,-86.305697,125.5,57363,31.9,5
26161,MI,Washtenaw County,42.252327,-83.844634,488.4,72267,14.9,3
26163,MI,Wayne County,42.284664,-83.261953,2974.4,46440,30,5
26165,MI,Wexford County,44.331375,-85.570046,57.9,46396,36.8,2
27001,MN,Aitkin County,46.602446,-93.41976,8.9,44016,37.7,7
27003,MN,Anoka County,45.27411,-93.242723,782.1,82284,27.9,6
27005,MN,Becker County,46.937629,-95.741757,24.7,59440,32,7
27007,MN,Beltrami County,47.878825,-94.986698,17.7,47073,28.1,7
27009,MN,Benton County,45.701227,-94.00144,94.2,61341,31.1,2
27011,MN,Big Stone County,45.419925,-96.402226,10.6,51058,43.5,1
27013,MN,Blue Earth County,44.038225,-94.064071,85.6,58132,26.7,3
27015,MN,Brown County,44.246542,-94.733647,42.4,60626,37.6,2
27017,MN,Carlton County,46.603818,-92.671044,41.1,60412,34.2,7
27019,MN,Carver County,44.821381,-93.800575,256.9,104248,19,3
27021,MN,Cass County,46.951427,-94.333773,14.1,48651,33.2,7
27023,MN,Chippewa County,45.028625,-95.564108,21.4,53540,35.9,7
27025,MN,Chisago County,45.505444,-92.903849,129.9,82814,33.9,7
27027,MN,Clay County,46.898377,-96.494901,56.4,65914,25.4,5
27029,MN,Clearwater County,47.575873,-95.371117,8.7,51475,35,1
27031,MN,Cook County,47.538571,-90.29019,3.6,54465,22.9,7
27033,MN,Cottonwood County,44.010711,-95.18313,18.3,51788,35.4,3
27035,MN,Crow Wing County,46.491114,-94.071213,62.6,53481,30.3,7
27037,MN,Dakota County,44.670893,-93.062481,709,86403,20.6,5
27039,MN,Dodge County,44.020706,-92.869353,45.7,75955,34.7,2
27041,MN,Douglas County,45.936429,-95.46061,56.5,60979,29.6,6
27043,MN,Faribault County,43.676522,-93.947234,20.4,52560,38.2,3
27045,MN,Fillmore County,43.67727,-92.093681,24.2,58761,34,3
27047,MN,Freeborn County,43.674202,-93.350289,44.2,52010,37.3,2
27049,MN,Goodhue County,44.406178,-92.716,61,67039,32.9,7
27051,MN,Grant County,45.930743,-96.010699,11,54917,33.7,2
27053,MN,Hennepin County,45.006064,-93.475185,2081.7,76067,16.7,5
27055,MN,Houston County,43.66699,-91.501556,34.5,59613,33.6,2
27057,MN,Hubbard County,47.095551,-94.91329,22.1,55687,30.8,3
27059,MN,Isanti County,45.562431,-93.296339,86.8,73468,33.8,7
27061,MN,Itasca County,47.490843,-93.613128,16.9,53143,30.2,6
27063,MN,Jackson County,43.673025,-95.149704,14.6,57786,34.2,7
27065,MN,Kanabec County,45.94776,-93.297788,31.1,56950,40.2,7
27067,MN,Kandiyohi County,45.152714,-95.004981,53,60579,25.8,5
27069,MN,Kittson County,48.77604,-96.780349,4.1,54438,38.1,4
27071,MN,Koochiching County,48.24549,-93.782842,4.3,46281,36,3
27073,MN,Lac qui Parle County,44.999855,-96.176836,9.5,52445,36.8,7
27075,MN,Lake County,47.517111,-91.411704,5.2,61015,31.5,7
27077,MN,Lake of the Woods County,48.7681,-94.904634,3.1,52058,39,7
27079,MN,Le Sueur County,44.373397,-93.73018,61.7,67269,34.9,3
27081,MN,Lincoln County,44.408238,-96.272032,11,51305,38.3,3
27083,MN,Lyon County,44.409195,-95.847268,36.2,57690,33.1,2
27085,MN,McLeod County,44.821644,-94.27232,74.6,61959,36.4,7
27087,MN,Mahnomen County,47.325842,-95.810703,9.7,43162,37.9,6
27089,MN,Marshall County,48.362728,-96.357761,5.3,58105,36.7,1
27091,MN,Martin County,43.677118,-94.537198,29.3,50821,38.1,2
27093,MN,Meeker County,45.123156,-94.527346,38.3,66557,36.3,7
27095,MN,Mille Lacs County,45.929043,-93.632996,45.6,53289,38.1,3
27097,MN,Morrison County,46.020484,-94.266619,29.5,57471,38.4,7
27099,MN,Mower County,43.666249,-92.759514,55.1,53387,31.6,3
27101,MN,Murray County,44.015594,-95.761581,12.4,59938,37.5,2
27103,MN,Nicollet County,44.35882,-94.245685,73,66209,26.7,3
27105,MN,Nobles County,43.677686,-95.763132,29.9,55766,32.5,3
27107,MN,Norman County,47.32947,-96.463807,7.9,48799,38.3,7
27109,MN,Olmsted County,44.00343,-92.406722,220.8,76001,19.8,3
27111,MN,Otter Tail County,46.405725,-95.714578,29.1,53778,29.3,5
27113,MN,Pennington County,48.069247,-96.037725,22.6,57494,33.8,3
27115,MN,Pine County,46.10094,-92.763094,21.1,50387,39.8,2
27117,MN,Pipestone County,44.015361,-96.257015,20.6,55378,34.6,2
27119,MN,Polk County,47.774254,-96.400027,16,60180,32.3,7
27121,MN,Pope County,45.589623,-95.446705,16.4,60975,32.6,4
27123,MN,Ramsey County,45.01525,-93.100141,3341.6,62937,20.9,6
27125,MN,Red Lake County,47.865487,-96.08718,9.5,54412,38.4,7
27127,MN,Redwood County,44.403536,-95.254242,18.3,56760,38.4,3
27129,MN,Renville County,44.723697,-94.955617,16,59787,36.3,5
27131,MN,Rice County,44.350943,-93.298503,129.4,67024,31,3
27133,MN,Rock County,43.669587,-96.263238,20.1,63503,33.5,7
27135,MN,Roseau County,48.761066,-95.82153,9.3,60239,34.9,2
27137,MN,St. Louis County,47.583852,-92.463645,32,53833,28,7
27139,MN,Scott County,44.651932,-93.534553,364.5,101427,22.6,5
27141,MN,Sherburne County,45.443171,-93.775092,204.4,81850,27.8,5
27143,MN,Sibley County,44.575734,-94.230123,25.9,66209,39.2,4
27145,MN,Stearns County,45.555235,-94.610482,112.2,60843,27.9,2
27147,MN,Steele County,44.015261,-93.220453,85.1,65323,34.3,5
27149,MN,Stevens County,45.593461,-95.992315,17.3,61929,29.2,2
27151,MN,Swift County,45.27545,-95.690398,13.2,51552,33.5,2
27153,MN,Todd County,46.066569,-94.900576,26.3,58113,36.4,7
27155,MN,Traverse County,45.76984,-96.475049,6.2,49773,34.6,4
27157,MN,Wabasha County,44.289693,-92.233341,41.4,63633,34.5,6
27159,MN,Wadena County,46.586784,-94.988331,25.8,46312,37.2,7
27161,MN,Waseca County,44.01846,-93.589844,45.2,58335,35.8,5
27163,MN,Washington County,45.037929,-92.890117,619.7,95840,21.1,5
27165,MN,Watonwan County,43.978366,-94.614128,25.8,51962,41.2,2
27167,MN,Wilkin County,46.362335,-96.476657,8.8,61387,29.7,7
27169,MN,Winona County,43.982268,-91.776708,82.2,56076,27.4,3
27171,MN,Wright County,45.175091,-93.966397,188.5,87377,29.1,5
27173,MN,Yellow Medicine County,44.715736,-95.862756,13.8,56528,35.5,7
28001,MS,Adams County,31.486218,-91.351781,69.8,33392,34.6,5
28003,MS,Alcorn County,34.886648,-88.581014,92.6,40010,32.6,7
28005,MS,Amite County,31.203933,-90.795542,18,38092,40.7,5
28007,MS,Attala County,33.09047,-89.588622,26.6,36761,31.3,4
28009,MS,Benton County,34.810773,-89.200029,21.5,35184,33.9,5
28011,MS,Bolivar County,33.799278,-90.884476,39,33116,24.7,7
28013,MS,Calhoun County,33.936634,-89.337114,25.5,39176,37.1,5
28015,MS,Carroll County,33.440795,-89.918887,16.9,42588,33.4,3
28017,MS,Chickasaw County,33.921654,-88.945808,34.7,37429,37,6
28019,MS,Choctaw County,33.345964,-89.251332,20.4,38479,38,7
28021,MS,Claiborne County,31.97281,-90.915424,19.7,29631,30.5,2
28023,MS,Clarke County,32.048448,-88.685964,24.2,41495,36.4,6
28025,MS,Clay County,33.661734,-88.783326,50.3,38121,33.9,7
28027,MS,Coahoma County,34.22867,-90.603165,47.3,29380,24.5,7
28029,MS,Copiah County,31.866915,-90.448758,37.9,38664,33.2,3
28031,MS,Covington County,31.633331,-89.548897,47.3,36083,37.3,2
28033,MS,DeSoto County,34.874266,-89.99324,338.7,68126,29.7,3
28035,MS,Forrest County,31.18858,-89.259447,160.7,39061,26.6,5
28037,MS,Franklin County,31.477798,-90.895884,14.4,39508,35.1,6
28039,MS,George County,30.855431,-88.642268,47.2,47246,38.9,6
28041,MS,Greene County,31.212846,-88.634811,20.2,42022,35.6,7
28043,MS,Grenada County,33.770031,-89.80274,51.9,39633,27.6,2
28045,MS,Hancock County,30.391437,-89.47985,92.7,49843,27.2,7
28047,MS,Harrison County,30.416536,-89.083376,326,45355,29.4,5
28049,MS,Hinds County,32.267924,-90.4659,282,44776,24.8,3
28051,MS,Holmes County,33.125942,-90.091197,25.4,26449,41.2,6
28053,MS,Humphreys County,33.132978,-90.523911,22.4,28542,32.8,5
28055,MS,Issaquena County,32.754977,-90.988552,3.4,26936,37.7,7
28057,MS,Itawamba County,34.281075,-88.363127,43.9,45720,30.2,7
28059,MS,Jackson County,30.458491,-88.619991,193.2,51771,31.5,6
28061,MS,Jasper County,32.016989,-89.11943,25.2,36987,37.2,3
28063,MS,Jefferson County,31.733633,-91.043878,14.9,28024,36.1,2
28065,MS,Jefferson Davis County,31.564734,-89.826626,30.6,31739,35.8,7
28067,MS,Jones County,31.621044,-89.167262,97.5,42435,30.5,6
28069,MS,Kemper County,32.750136,-88.625631,13.6,33437,37.5,4
28071,MS,Lafayette County,34.349298,-89.485903,75,49381,18.8,3
28073,MS,Lamar County,31.197135,-89.514952,112,58377,23.5,5
28075,MS,Lauderdale County,32.403998,-88.660449,114.1,40077,28.8,5
28077,MS,Lawrence County,31.550009,-90.10753,30,40510,37.3,2
28079,MS,Leake County,32.753268,-89.522568,40.8,37212,36.6,2
28081,MS,Lee County,34.288965,-88.680887,184.3,51088,25,7
28083,MS,Leflore County,33.54979,-90.294934,54.5,29244,36.5,6
28085,MS,Lincoln County,31.535216,-90.453566,59.5,43478,37.4,5
28087,MS,Lowndes County,33.471424,-88.439723,118.3,44348,31.5,5
28089,MS,Madison County,32.63437,-90.03416,133.2,75740,16.6,3
28091,MS,Marion County,31.230126,-89.821736,49.9,36408,39.7,5
28093,MS,Marshall County,34.76619,-89.504231,52.6,40285,40.1,7
28095,MS,Monroe County,33.89003,-88.485038,48.3,44681,35.8,6
28097,MS,Montgomery County,33.500714,-89.639625,26.8,36311,34.3,3
28099,MS,Neshoba County,32.752518,-89.119274,52.1,36236,34,3
28101,MS,Newton County,32.40197,-89.118412,37.6,40792,30.5,3
28103,MS,Noxubee County,33.10627,-88.565787,16.6,32167,32.2,7
28105,MS,Oktibbeha County,33.422313,-88.876151,104,39130,20.4,5
28107,MS,Panola County,34.365205,-89.963065,50.7,39198,37.8,5
28109,MS,Pearl River County,30.773791,-89.586832,68.9,45268,29.9,6
28111,MS,Perry County,31.169307,-88.988755,18.9,39687,40.1,3
28113,MS,Pike County,31.177517,-90.397725,98.8,33983,35.6,5
28115,MS,Pontotoc County,34.227081,-89.037239,60.2,44297,30.3,5
28117,MS,Prentiss County,34.620866,-88.52224,60.9,41281,33.7,7
28119,MS,Quitman County,34.25264,-90.290525,20.3,27767,30.2,6
28121,MS,Rankin County,32.262057,-89.946552,182.6,66296,26.3,3
28123,MS,Scott County,32.427127,-89.533209,46.4,38034,35.5,4
28125,MS,Sharkey County,32.89249,-90.827388,11.4,28887,24.2,6
28127,MS,Simpson County,31.902503,-89.917707,46.7,38173,33.2,4
28129,MS,Smith County,32.019034,-89.494973,25.9,46764,42,3
28131,MS,Stone County,30.790184,-89.112297,39.9,44622,34.1,7
28133,MS,Sunflower County,33.605529,-90.59509,42.2,31329,29.5,5
28135,MS,Tallahatchie County,33.955891,-90.172833,23.8,32692,31.6,3
28137,MS,Tate County,34.649553,-89.943105,71.4,48082,32.6,5
28139,MS,Tippah County,34.763618,-88.918819,48.6,39833,35.9,7
28141,MS,Tishomingo County,34.737699,-88.236067,46.2,41455,41,7
28143,MS,Tunica County,34.652201,-90.37177,23.7,33143,31.1,7
28145,MS,Union County,34.489101,-89.0023,65.3,46600,31.6,7
28147,MS,Walthall County,31.164492,-90.103431,38.2,33566,45.8,3
28149,MS,Warren County,32.357005,-90.851791,82.9,46049,31.2,6
28151,MS,Washington County,33.273131,-90.94443,70.6,33991,30.5,5
28153,MS,Wayne County,31.64476,-88.682057,25.6,37401,37.7,7
28155,MS,Webster County,33.612048,-89.283836,24.4,43349,36.8,7
28157,MS,Wilkinson County,31.160249,-91.325567,14.6,29900,40.3,7
28159,MS,Winston County,33.078724,-89.037391,31.6,39498,32.5,5
28161,MS,Yalobusha County,34.030669,-89.703793,27.1,39551,38.5,2
28163,MS,Yazoo County,32.765675,-90.387928,30.4,33111,37.2,4
29001,MO,Adair County,40.190666,-92.603592,45.1,40395,35.8,7
29003,MO,Andrew County,39.988863,-94.803551,40,57459,38.1,7
29005,MO,Atchison County,40.431846,-95.437555,10.4,49122,39.6,7
29007,MO,Audrain County,39.21448,-91.843415,36.9,44340,46.4,7
29009,MO,Barry County,36.699378,-93.834326,45.7,42457,40.9,5
29011,MO,Barton County,37.500799,-94.344089,21,41583,42.8,3
29013,MO,Bates County,38.257217,-94.339246,20.4,45955,46.2,7
29015,MO,Benton County,38.301036,-93.287942,27.1,40025,40.8,7
29017,MO,Bollinger County,37.318349,-90.024601,20,44233,46.5,6
29019,MO,Boone County,38.989657,-92.310779,237.3,55136,21.2,3
29021,MO,Buchanan County,39.66037,-94.808173,218.6,52506,37,3
29023,MO,Butler County,36.71518,-90.40313,61.6,38067,36,7
29025,MO,Caldwell County,39.658998,-93.979179,22.1,47591,43.2,2
29027,MO,Callaway County,38.835966,-91.924089,53.1,53970,37.2,7
29029,MO,Camden County,38.031995,-92.765138,67.1,48580,37.7,7
29031,MO,Cape Girardeau County,37.383882,-89.684908,130.8,51962,32.1,2
29033,MO,Carroll County,39.427375,-93.500227,13.4,47049,45.2,2
29035,MO,Carter County,36.944783,-90.945626,12.3,34134,37.3,4
29037,MO,Cass County,38.647159,-94.354242,142.8,71374,33.1,6
29039,MO,Cedar County,37.733655,-93.850014,29.5,37288,40.2,7
29041,MO,Chariton County,39.517969,-92.961621,10.4,48421,48.9,7
29043,MO,Christian County,36.969739,-93.187614,137.6,58057,30.4,7
29045,MO,Clark County,40.407275,-91.729472,14.1,46832,44,7
29047,MO,Clay County,39.315551,-94.421502,558.6,68943,28.8,6
29049,MO,Clinton County,39.608723,-94.395803,49.5,58641,39.4,7
29051,MO,Cole County,38.506847,-92.271404,193,62817,30.7,6
29053,MO,Cooper County,38.845386,-92.812323,31.2,52513,38.8,7
29055,MO,Crawford County,37.966561,-91.313933,33.3,42774,39.3,7
29057,MO,Dade County,37.43235,-93.854878,16.1,41381,44.1,1
29059,MO,Dallas County,37.683583,-93.033812,31,38765,42.1,7
29061,MO,Daviess County,39.962839,-93.970053,15,51255,40.8,1
29063,MO,DeKalb County,39.894665,-94.40719,30.6,48920,45.4,2
29065,MO,Dent County,37.60325,-91.495916,20.8,39392,40.4,7
29067,MO,Douglas County,36.946517,-92.515892,16.8,36762,44.5,4
29069,MO,Dunklin County,36.153025,-90.062254,59.1,37331,37.4,7
29071,MO,Franklin County,38.408313,-91.07341,110,58738,32.8,6
29073,MO,Gasconade County,38.441183,-91.50578,29.4,52282,39.3,6
29075,MO,Gentry County,40.209379,-94.40411,13.7,43731,43,2
29077,MO,Greene County,37.258196,-93.340641,407.5,44799,28.2,7
29079,MO,Grundy County,40.112541,-93.565054,23.6,40315,40,7
29081,MO,Harrison County,40.34562,-93.992582,12.4,40639,45.8,1
29083,MO,Henry County,38.386491,-93.792628,32,44978,42.5,7
29085,MO,Hickory County,37.9367,-93.322835,24.1,35025,43.4,7
29087,MO,Holt County,40.095724,-95.219072,10.6,47191,43.9,7
29089,MO,Howard County,39.143365,-92.695926,21.9,45767,38.5,7
29091,MO,Howell County,36.774369,-91.887368,43.6,36762,39.6,7
29093,MO,Iron County,37.62596,-90.699627,19.3,37755,42.2,7
29095,MO,Jackson County,39.007233,-94.342507,1115.3,55864,28.4,6
29097,MO,Jasper County,37.200865,-94.338869,183.9,46596,34.3,2
29099,MO,Jefferson County,38.257414,-90.543138,333.1,65150,31.8,7
29101,MO,Johnson County,38.74588,-93.805999,63.4,52151,30.3,2
29103,MO,Knox County,40.136776,-92.146809,8.2,39309,46.1,7
29105,MO,Laclede County,37.65969,-92.594832,46.5,44562,39.2,2
29107,MO,Lafayette County,39.068705,-93.802639,53.1,53389,43.2,6
29109,MO,Lawrence County,37.106135,-93.833262,63.2,45074,37,7
29111,MO,Lewis County,40.084559,-91.728803,20.2,48179,45.9,7
29113,MO,Lincoln County,39.058568,-90.957771,83.9,62238,42.2,7
29115,MO,Linn County,39.86444,-93.108019,20.7,44992,46,6
29117,MO,Livingston County,39.778587,-93.548201,28.5,48749,38.7,5
29119,MO,McDonald County,36.630218,-94.343956,42.8,40204,40.6,2
29121,MO,Macon County,39.829795,-92.56434,19.4,45440,44.4,2
29123,MO,Madison County,37.473235,-90.345453,24.7,40191,34.4,7
29125,MO,Maries County,38.162615,-91.923601,17.4,46371,40.3,7
29127,MO,Marion County,39.807538,-91.635379,65.9,49393,38.2,7
29129,MO,Mercer County,40.421414,-93.567631,8.3,46014,46.9,4
29131,MO,Miller County,38.21672,-92.429871,41.8,47225,43.1,7
29133,MO,Mississippi County,36.826264,-89.295929,34.9,34735,39.6,5
29135,MO,Moniteau County,38.633037,-92.583642,37.6,57047,42.3,7
29137,MO,Monroe County,39.49827,-92.006458,13.6,46216,48.3,7
29139,MO,Montgomery County,38.935162,-91.465437,22.8,48951,44.8,2
29141,MO,Morgan County,38.420807,-92.874835,34.4,45276,40.1,7
29143,MO,New Madrid County,36.594261,-89.655949,28.1,38093,44.3,7
29145,MO,Newton County,36.908017,-94.334741,93,49220,34.4,3
29147,MO,Nodaway County,40.360484,-94.883281,26.6,46698,38.6,7
29149,MO,Oregon County,36.684867,-91.402902,13.8,32720,40.2,7
29151,MO,Osage County,38.464254,-91.859504,23,58855,43.9,6
29153,MO,Ozark County,36.649643,-92.45858,13.1,34367,44.6,7
29155,MO,Pemiscot County,36.209916,-89.785942,37.1,31831,41.3,7
29157,MO,Perry County,37.71113,-89.802125,40,53871,44.7,5
29159,MO,Pettis County,38.727367,-93.285207,61.9,45254,34.5,7
29161,MO,Phelps County,37.866326,-91.790349,67.2,43079,29.9,6
29163,MO,Pike County,39.344178,-91.171042,27.6,43591,45.1,7
